{"version": 0.6, "generator": "Overpass API 0.7.62.11 87bfad18", "osm3s": {"timestamp_osm_base": "2026-03-12T05:07:34Z", "copyright": "The data included in this document is from www.openstreetmap.org. The data is made available under ODbL."}, "elements": [{"type": "node", "id": 283163978, "lat": 18.5167868, "lon": 73.8791405, "tags": {"address": "5 M. G. Road", "amenity": "restaurant", "check_date": "2026-03-10", "name": "The Charcoal Pit"}}, {"type": "node", "id": 283166314, "lat": 18.5364098, "lon": 73.8973015, "tags": {"amenity": "restaurant", "bar": "yes", "cuisine": "indian", "name": "The Great Punjab", "ramp": "yes"}}, {"type": "node", "id": 511975995, "lat": 18.5387955, "lon": 73.912781, "tags": {"amenity": "restaurant", "brand": "Hard Rock Cafe", "brand:wikidata": "Q918151", "check_date": "2026-03-10", "cuisine": "american", "name": "Hard Rock Cafe"}}, {"type": "node", "id": 511975996, "lat": 18.5383533, "lon": 73.9126684, "tags": {"amenity": "restaurant", "check_date": "2026-03-10", "name": "Stone Water Grill"}}, {"type": "node", "id": 513157038, "lat": 18.5067094, "lon": 73.8321992, "tags": {"amenity": "restaurant", "cuisine": "seafood", "delivery": "yes", "name": "Nisarg", "name:mr": "\u0928\u093f\u0938\u0930\u094d\u0917", "outdoor_seating": "no", "source": "local", "takeaway": "yes"}}, {"type": "node", "id": 518295335, "lat": 18.5396305, "lon": 73.8833529, "tags": {"amenity": "restaurant", "check_date": "2026-03-09", "name": "Le Pizzeria"}}, {"type": "node", "id": 518640962, "lat": 18.538908, "lon": 73.8752478, "tags": {"addr:city": "Pune", "addr:country": "IN", "addr:postcode": "411001", "addr:state": "MH", "addr:street": "Boat Club Road", "amenity": "restaurant", "check_date": "2026-03-10", "cuisine": "chinese", "drive_in": "no", "internet_access": "no", "microbrewery": "no", "name": "Asia Kitchen", "name:mr": "\u092e\u0947\u0928\u0932\u0901\u0921 \u091a\u093e\u092f\u0928\u093e", "outdoor_seating": "no", "phone": "+91 20 66013030", "smoking": "no", "takeaway": "yes", "website": "www.mainlandchina.com", "wheelchair": "no"}}, {"type": "node", "id": 531363938, "lat": 18.5690389, "lon": 73.8321526, "tags": {"amenity": "restaurant", "cuisine": "thai", "name": "Thai House", "opening_hours": "Mo-Sa 12:00-22:45"}}, {"type": "node", "id": 545786379, "lat": 18.5124118, "lon": 73.9284574, "tags": {"addr:city": "Pune", "addr:country": "IN", "addr:postcode": "411013", "addr:state": "Maharashtra", "addr:street": "Magarpatta Inner Circle", "amenity": "restaurant", "cuisine": "regional", "internet_access": "no", "name": "Yummy Tummy", "takeaway": "yes"}}, {"type": "node", "id": 622955570, "lat": 18.5391023, "lon": 73.9061842, "tags": {"amenity": "restaurant", "check_date": "2026-03-10", "name": "Seasonal Tastes"}}, {"type": "node", "id": 667277959, "lat": 18.5062169, "lon": 73.9013284, "tags": {"amenity": "restaurant", "check_date": "2026-03-12", "name": "Haka"}}, {"type": "node", "id": 671445777, "lat": 18.5104212, "lon": 73.8799164, "tags": {"addr:city": "Pune", "addr:country": "IN", "addr:postcode": "411001", "addr:state": "Maharashtra", "addr:street": "East Street", "amenity": "restaurant", "internet_access": "no", "name": "Thousand Oaks", "outdoor_seating": "no", "phone": "+91 20 26343194", "smoking": "no", "takeaway": "yes", "website": "1000oaksindia.com"}}, {"type": "node", "id": 671446340, "lat": 18.5199422, "lon": 73.8804464, "tags": {"addr:city": "Pune", "addr:country": "IN", "addr:housenumber": "Virwani Plaza 11", "addr:postcode": "411001", "addr:state": "Maharashtra", "addr:street": "East Street", "amenity": "restaurant", "internet_access": "no", "name": "11 East Street Cafe", "outdoor_seating": "yes", "phone": "+91 20 41045500", "smoking": "yes", "takeaway": "yes"}}, {"type": "node", "id": 671452972, "lat": 18.5140857, "lon": 73.8796502, "tags": {"amenity": "restaurant", "name": "Kareem's"}}, {"type": "node", "id": 671465865, "lat": 18.5150767, "lon": 73.8799074, "tags": {"amenity": "restaurant", "check_date": "2026-03-10", "name": "Kwality"}}, {"type": "node", "id": 672119121, "lat": 18.5124763, "lon": 73.880839, "tags": {"amenity": "restaurant", "name": "Sheetal Arch"}}, {"type": "node", "id": 672215465, "lat": 18.5395737, "lon": 73.8750368, "tags": {"amenity": "restaurant", "check_date": "2026-03-10", "name": "Sigree"}}, {"type": "node", "id": 672226924, "lat": 18.5272989, "lon": 73.877989, "tags": {"amenity": "restaurant", "check_date": "2026-03-12", "name": "Flags", "name:mr": "\u092b\u094d\u0932\u0945\u0917\u094d\u091c"}}, {"type": "node", "id": 672232340, "lat": 18.5191213, "lon": 73.8785611, "tags": {"amenity": "restaurant", "name": "Ram Krishna"}}, {"type": "node", "id": 674921316, "lat": 18.5265172, "lon": 73.8872945, "tags": {"amenity": "restaurant", "name": "Trinco"}}, {"type": "node", "id": 679044949, "lat": 18.5393141, "lon": 73.9061183, "tags": {"amenity": "restaurant", "check_date": "2026-03-10", "name": "Prego"}}, {"type": "node", "id": 679044987, "lat": 18.5399703, "lon": 73.9061077, "tags": {"amenity": "restaurant", "check_date": "2026-03-10", "name": "Kangan"}}, {"type": "node", "id": 761910880, "lat": 18.5494, "lon": 73.8042565, "tags": {"amenity": "restaurant", "cuisine": "indian", "name": "Rajwada", "name:mr": "\u0930\u093e\u091c\u0935\u093e\u0921\u093e"}}, {"type": "node", "id": 761931088, "lat": 18.5064267, "lon": 73.7839701, "tags": {"amenity": "restaurant", "name": "Up and Above", "name:mr": "\u0905\u092a \u0905\u0901\u0921 \u0905\u092c\u093e\u0935"}}, {"type": "node", "id": 789623167, "lat": 18.5217526, "lon": 73.8774667, "tags": {"amenity": "restaurant", "check_date": "2026-03-12", "name": "Blue Nile", "wheelchair": "limited"}}, {"type": "node", "id": 789630715, "lat": 18.5173226, "lon": 73.8794126, "tags": {"amenity": "restaurant", "diet:non-vegetarian": "yes", "diet:vegetarian": "yes", "name": "George", "name:mr": "\u091c\u0949\u0930\u094d\u091c"}}, {"type": "node", "id": 811226430, "lat": 18.5208896, "lon": 73.8725539, "tags": {"amenity": "restaurant", "name": "Mahesh Lunch Home"}}, {"type": "node", "id": 831251526, "lat": 18.5540074, "lon": 73.9051438, "tags": {"addr:city": "Kalyani Nagar", "addr:postcode": "411006", "addr:street": "East Avenue", "amenity": "restaurant", "check_date": "2026-03-12", "email": "toitpune@toit.in", "name": "Toit brewery and Resturant", "phone": "+91 7796694400", "source": "survey", "website": "https://toit.in/toit-on-tap/pune/"}}, {"type": "node", "id": 831253313, "lat": 18.5452508, "lon": 73.9063531, "tags": {"amenity": "restaurant", "check_date": "2026-03-09", "name": "Rajdhani"}}, {"type": "node", "id": 865779489, "lat": 18.5552434, "lon": 73.7983529, "tags": {"addr:city": "Pune", "addr:postcode": "411045", "addr:street": "Baner Road", "amenity": "restaurant", "cuisine": "indian;chinese", "name": "Hotel Mahableshwar"}}, {"type": "node", "id": 871483312, "lat": 18.5365716, "lon": 73.8757543, "tags": {"amenity": "restaurant", "name": "Zamu's Place", "name:mr": "\u091d\u093e\u092e\u0942\u091c \u092a\u094d\u0932\u0947\u0938"}}, {"type": "node", "id": 936411065, "lat": 18.5169144, "lon": 73.8794546, "tags": {"amenity": "restaurant", "check_date": "2026-03-10", "name": "Chung Fa"}}, {"type": "node", "id": 936411462, "lat": 18.5166042, "lon": 73.8795245, "tags": {"amenity": "restaurant", "check_date": "2026-03-10", "name": "Mayur Thali"}}, {"type": "node", "id": 1011184907, "lat": 18.5435148, "lon": 73.7841772, "tags": {"amenity": "restaurant", "name": "Hotel Parichay"}}, {"type": "node", "id": 1011184945, "lat": 18.5435326, "lon": 73.7844503, "tags": {"amenity": "restaurant", "name": "Hotel Prasanna"}}, {"type": "node", "id": 1065859943, "lat": 18.5425963, "lon": 73.7887912, "tags": {"addr:street": "Pashan-Sus Road", "amenity": "restaurant", "name": "Shivanjali Restaurant and Bar"}}, {"type": "node", "id": 1157298290, "lat": 18.588516, "lon": 73.7830226, "tags": {"addr:floor": "G", "amenity": "restaurant", "check_date": "2023-02-25", "diet:vegetarian": "yes", "level": "0", "name": "\u0917\u094b\u0915\u0941\u0933", "name:en": "Gokul", "name:mr": "\u0917\u094b\u0915\u0941\u0933"}}, {"type": "node", "id": 1223055583, "lat": 18.4909464, "lon": 73.9002064, "tags": {"addr:city": "Pune", "addr:country": "IN", "addr:postcode": "411013", "addr:state": "Maharashtra", "addr:street": "Vitthal Shivarkar Marg", "amenity": "restaurant", "internet_access": "no", "name": "Atlantis", "outdoor_seating": "no", "smoking": "no", "takeaway": "yes"}}, {"type": "node", "id": 1242067056, "lat": 18.5191455, "lon": 73.8775238, "tags": {"amenity": "restaurant", "brand": "Pizza Hut", "brand:wikidata": "Q191615", "brand:wikipedia": "en:Pizza Hut", "check_date": "2026-03-12", "cuisine": "pizza", "name": "Pizza Hut"}}, {"type": "node", "id": 1271226865, "lat": 18.5098693, "lon": 73.8144673, "tags": {"amenity": "restaurant", "name": "Hotel Palavi"}}, {"type": "node", "id": 1529099480, "lat": 18.5031683, "lon": 73.788128}, {"type": "node", "id": 1529099482, "lat": 18.5028835, "lon": 73.788965}, {"type": "node", "id": 1529099484, "lat": 18.5030297, "lon": 73.7880923}, {"type": "node", "id": 1529099486, "lat": 18.5036653, "lon": 73.7889872}, {"type": "node", "id": 1529099487, "lat": 18.5038276, "lon": 73.7881351}, {"type": "node", "id": 1529099488, "lat": 18.5038479, "lon": 73.7880959}, {"type": "node", "id": 1532852999, "lat": 18.5096188, "lon": 73.9283508, "tags": {"addr:city": "Magarpatta City", "addr:housename": "Destination Center", "addr:postcode": "411028", "addr:street": "Destination Centre", "amenity": "restaurant", "cuisine": "indian", "name": "Global Punjab", "phone": "+9102067225957", "website": "http://www.global-punjab.com"}}, {"type": "node", "id": 1534215007, "lat": 18.5140762, "lon": 73.8409178, "tags": {"addr:housename": "Darshan Restaurant", "addr:housenumber": "759/60", "addr:postcode": "411004", "addr:street": "Prabhat Road", "amenity": "restaurant", "cuisine": "international", "name": "Darshan", "name:mr": "\u0926\u0930\u094d\u0936\u0928", "phone": "02025673671", "source": "Local", "website": "https://darshanrestaurant.com/", "wheelchair": "no"}}, {"type": "node", "id": 1534457948, "lat": 18.5172995, "lon": 73.8414591, "tags": {"addr:postcode": "411004", "addr:street": "Good Luck Chowk", "amenity": "restaurant", "cuisine": "indian", "name": "Cafe Good Luck", "name:mr": "\u0915\u0945\u092b\u0947 \u0917\u0941\u0921 \u0932\u0915", "phone": "020 25676893", "source": "local"}}, {"type": "node", "id": 1563323284, "lat": 18.4965595, "lon": 73.802295, "tags": {"amenity": "restaurant", "cuisine": "indian", "name": "Punjab Canteen"}}, {"type": "node", "id": 1597826957, "lat": 18.4747312, "lon": 73.8560171, "tags": {"amenity": "restaurant", "diet:vegetarian": "only", "internet_access": "yes", "name": "Hotel Ravikant", "phone": "+91 8668948654", "wheelchair": "no"}}, {"type": "node", "id": 1609994720, "lat": 18.5464794, "lon": 73.9065617, "tags": {"amenity": "restaurant", "check_date": "2026-03-09", "cuisine": "indian", "name": "Tiger Trail"}}, {"type": "node", "id": 1651542424, "lat": 18.5651701, "lon": 73.9113565, "tags": {"amenity": "restaurant", "name": "Punjabi Dhaba"}}, {"type": "node", "id": 1696565496, "lat": 18.4860246, "lon": 73.8882841}, {"type": "node", "id": 1696565500, "lat": 18.4863883, "lon": 73.8881178}, {"type": "node", "id": 1696565530, "lat": 18.4860755, "lon": 73.8885685}, {"type": "node", "id": 1696565536, "lat": 18.4863858, "lon": 73.8883753}, {"type": "node", "id": 1696565541, "lat": 18.4862594, "lon": 73.8884877}, {"type": "node", "id": 1696565546, "lat": 18.4864374, "lon": 73.888198}, {"type": "node", "id": 1705497142, "lat": 18.4922841, "lon": 73.8337744, "tags": {"addr:street": "Sinhagad Road", "amenity": "restaurant", "contact:facebook": "https://www.facebook.com/onewayfoods", "diet:vegetarian": "only", "name": "One way Food"}}, {"type": "node", "id": 1706553325, "lat": 18.4945107, "lon": 73.8134701, "tags": {"alt_name": "Pruthvi", "amenity": "restaurant", "delivery": "yes", "diet:vegetarian": "only", "name": "Pruthvi Vegetarianism", "wheelchair": "no"}}, {"type": "node", "id": 1709944510, "lat": 18.4800904, "lon": 73.8569229, "tags": {"amenity": "restaurant", "diet:vegetarian": "only", "name": "Basuri"}}, {"type": "node", "id": 1709944517, "lat": 18.4633503, "lon": 73.8583829, "tags": {"amenity": "restaurant", "diet:vegetarian": "only", "name": "Khooshabu"}}, {"type": "node", "id": 1710015241, "lat": 18.5050823, "lon": 73.9279049, "tags": {"amenity": "restaurant", "name": "Shamli"}}, {"type": "node", "id": 1710015243, "lat": 18.5032866, "lon": 73.9277976, "tags": {"amenity": "restaurant", "diet:vegetarian": "only", "name": "Bashri"}}, {"type": "node", "id": 1720374434, "lat": 18.5037935, "lon": 73.8306467, "tags": {"amenity": "restaurant", "diet:vegetarian": "only", "name": "Abhishek Veg", "name:mr": "\u0905\u092d\u093f\u0937\u0947\u0915 \u0935\u094d\u0939\u0947\u091c", "wheelchair": "no"}}, {"type": "node", "id": 1725218626, "lat": 18.4807993, "lon": 73.8752608, "tags": {"amenity": "restaurant", "name": "Meghdoot"}}, {"type": "node", "id": 1725545592, "lat": 18.5037078, "lon": 73.7889848}, {"type": "node", "id": 1725545598, "lat": 18.5038863, "lon": 73.7881174}, {"type": "node", "id": 1725545609, "lat": 18.5046596, "lon": 73.7890401}, {"type": "node", "id": 1725545612, "lat": 18.5048224, "lon": 73.7878599}, {"type": "node", "id": 1730061011, "lat": 18.4926639, "lon": 73.8574632, "tags": {"amenity": "restaurant", "diet:vegetarian": "only", "name": "Panchami Hotel"}}, {"type": "node", "id": 1738338368, "lat": 18.4887519, "lon": 73.8571728, "tags": {"addr:street": "Satara Road", "amenity": "restaurant", "diet:vegetarian": "only", "name": "Vedant"}}, {"type": "node", "id": 1751252787, "lat": 18.4977614, "lon": 73.7876344, "tags": {"amenity": "restaurant", "name": "Oasis Restaurant, Bar and Banquets", "opening_hours": "Mo-Su 11:00-23:00"}}, {"type": "node", "id": 1796901377, "lat": 18.5374326, "lon": 73.8973367, "tags": {"amenity": "restaurant", "bar": "yes", "cuisine": "thai;asian", "name": "Malaka Spice", "ramp": "yes"}}, {"type": "node", "id": 1804237966, "lat": 18.5487745, "lon": 73.9056726, "tags": {"amenity": "restaurant", "cuisine": "kebab", "name": "Marrakesh", "name:mr": "\u092e\u0930\u093e\u0915\u0947\u0936"}}, {"type": "node", "id": 1807637657, "lat": 18.4922365, "lon": 73.8559341, "tags": {"amenity": "restaurant"}}, {"type": "node", "id": 1827287456, "lat": 18.5405197, "lon": 73.8192184, "tags": {"amenity": "restaurant", "name": "Abhiman Restaurant"}}, {"type": "node", "id": 1838689879, "lat": 18.4956381, "lon": 73.8107689, "tags": {"addr:city": "Pune", "addr:street": "Dahanukar Circle", "amenity": "restaurant", "contact:facebook": "https://www.facebook.com/onewayfoods", "diet:vegetarian": "only", "name": "One Way Foods"}}, {"type": "node", "id": 1841000023, "lat": 18.5306779, "lon": 73.9183814, "tags": {"amenity": "restaurant", "check_date": "2026-03-10", "cuisine": "international", "name": "Basho's", "website": "https://www.zomato.com/pune/restaurants/kp-kalyani-sassoon/koregaon-park/bashos-11211/info"}}, {"type": "node", "id": 1846908244, "lat": 18.5175183, "lon": 73.8748581, "tags": {"amenity": "restaurant", "check_date": "2026-03-10", "name": "Eddie's Kitchen"}}, {"type": "node", "id": 1881125388, "lat": 18.4902905, "lon": 73.8499957}, {"type": "node", "id": 1881125389, "lat": 18.4905067, "lon": 73.8500145}, {"type": "node", "id": 1881125390, "lat": 18.4904914, "lon": 73.8499903}, {"type": "node", "id": 1881125391, "lat": 18.4904609, "lon": 73.8500011}, {"type": "node", "id": 1881125392, "lat": 18.4905576, "lon": 73.8500386}, {"type": "node", "id": 1881125393, "lat": 18.4902727, "lon": 73.8500198}, {"type": "node", "id": 1881125394, "lat": 18.490555, "lon": 73.8499957}, {"type": "node", "id": 1881125395, "lat": 18.4902981, "lon": 73.8500547}, {"type": "node", "id": 1881125396, "lat": 18.490321, "lon": 73.8501003}, {"type": "node", "id": 2006306717, "lat": 18.481153, "lon": 73.901725, "tags": {"addr:city": "Pune", "addr:country": "IN", "addr:postcode": "411048", "addr:state": "Maharashtra", "addr:street": "Salunkhe Vihar Road", "amenity": "restaurant", "cuisine": "donut", "internet_access": "no", "name": "Donut Magic", "outdoor_seating": "yes", "smoking": "yes", "takeaway": "yes"}}, {"type": "node", "id": 2031346073, "lat": 18.539333, "lon": 73.87508, "tags": {"addr:city": "Pune", "addr:country": "IN", "addr:postcode": "411001", "addr:state": "MH", "addr:street": "Boat Club Road", "amenity": "restaurant", "check_date": "2026-03-10", "cuisine": "italian", "drive_in": "no", "internet_access": "no", "internet_access:fee": "no", "microbrewery": "yes", "name": "Sicilia Italian Restaurant & Lounge", "outdoor_seating": "no", "phone": "+91 20 26168555", "smoking": "no", "takeaway": "yes", "wheelchair": "no"}}, {"type": "node", "id": 2034779203, "lat": 18.4917721, "lon": 73.900206, "tags": {"addr:city": "Pune", "addr:postcode": "411018", "addr:state": "Maharashtra", "addr:street": "Vitthal Shivarkar Marg", "amenity": "restaurant", "brand": "Kwality", "brand:pa": "\u0915\u094d\u0935\u093e\u0932\u093f\u091f\u0940", "cuisine": "indian", "delivery": "yes", "drive_through": "no", "internet_access": "no", "name": "Kwality", "name:hi": "\u0915\u094d\u0935\u093e\u0932\u093f\u091f\u0940", "official_name": "Kwality Family Resto Bar", "outdoor_seating": "no", "smoking": "no", "takeaway": "yes"}}, {"type": "node", "id": 2148865443, "lat": 18.5178988, "lon": 73.8386127, "tags": {"amenity": "restaurant", "cuisine": "indian", "name": "Panchvati Gaurav"}}, {"type": "node", "id": 2192111448, "lat": 18.501756, "lon": 73.8105515, "tags": {"amenity": "restaurant", "cuisine": "indian", "name": "Greenfood", "name:mr": "\u0917\u094d\u0930\u0940\u0928\u092b\u0942\u0921"}}, {"type": "node", "id": 2206571165, "lat": 18.4987975, "lon": 73.8132784, "tags": {"amenity": "restaurant", "cuisine": "pizza", "name": "Smokin' Joe's", "opening_hours": "Mo-Su 11:00-23:00", "takeaway": "yes", "website": "https://www.smokinjoespizza.com/"}}, {"type": "node", "id": 2263018409, "lat": 18.5490038, "lon": 73.9004452, "tags": {"addr:housename": "Nirvana Complex", "addr:postcode": "411006", "addr:street": "North Avenue", "amenity": "restaurant", "check_date": "2026-03-10", "cuisine": "international", "name": "The Flour Works", "website": "https://theflourworks.com/"}}, {"type": "node", "id": 2266979720, "lat": 18.5184279, "lon": 73.8416116, "tags": {"amenity": "restaurant", "cuisine": "indian", "name": "Wadeshwar", "name:mr": "\u0935\u093e\u0921\u0947\u0936\u094d\u0935\u0930"}}, {"type": "node", "id": 2273735905, "lat": 18.518642, "lon": 73.8415805, "tags": {"amenity": "restaurant", "cuisine": "indian", "name": "Amrapali", "name:mr": "\u0906\u092e\u094d\u0930\u092a\u093e\u0932\u0940"}}, {"type": "node", "id": 2273735906, "lat": 18.5163182, "lon": 73.8423121, "tags": {"addr:housename": "Deccan Mall", "addr:postcode": "411004", "addr:street": "JM Road", "amenity": "restaurant", "cuisine": "barbecue", "name": "Barbeque Nation", "name:mr": "\u092c\u093e\u0930\u094d\u092c\u0947\u0915\u094d\u092f\u0942 \u0928\u0947\u0936\u0928", "opening_hours": "Mo-Su 12:00-15:00,19:00-23:00", "phone": "02060600002", "website": "https://barbeque-nation.com/", "wheelchair": "limited"}}, {"type": "node", "id": 2273735910, "lat": 18.520848, "lon": 73.8412179, "tags": {"amenity": "restaurant", "check_date": "2025-01-04", "cuisine": "indian", "name": "Vaishali", "name:en": "Vaishali", "name:mr": "\u0935\u0948\u0936\u093e\u0932\u0940"}}, {"type": "node", "id": 2274995528, "lat": 18.5086926, "lon": 73.8488417, "tags": {"amenity": "restaurant", "cuisine": "indian", "name": "Baadshahi", "name:mr": "\u092c\u093e\u0926\u0936\u093e\u0939\u0940"}}, {"type": "node", "id": 2314870623, "lat": 18.5193443, "lon": 73.8414253, "tags": {"amenity": "restaurant", "cuisine": "indian", "name": "Roopali", "name:mr": "\u0930\u0942\u092a\u093e\u0932\u0940"}}, {"type": "node", "id": 2323358533, "lat": 18.5617981, "lon": 73.7835145, "tags": {"addr:city": "Baner", "addr:postcode": "411045", "addr:street": "Baner Road", "amenity": "restaurant", "cuisine": "indian", "name": "Do Say Idlicious"}}, {"type": "node", "id": 2383922172, "lat": 18.5097729, "lon": 73.816251, "tags": {"amenity": "restaurant", "name": "Chaitanya Paranthas"}}, {"type": "node", "id": 2384119753, "lat": 18.5596449, "lon": 73.7900382, "tags": {"amenity": "restaurant", "cuisine": "indian", "diet:non-vegetarian": "yes", "diet:vegetarian": "yes", "name": "Hotel Nilayam Family Restaurant", "name:en": "Hotel Nilayam Family Restaurant", "name:mr": "\u0939\u094b\u091f\u0932 \u0928\u093f\u0932\u093e\u092f\u092e \u092b\u0945\u092e\u093f\u0932\u0940 \u0930\u0947\u0938\u094d\u091f\u0949\u0930\u0902\u091f"}}, {"type": "node", "id": 2410718622, "lat": 18.5325596, "lon": 73.8341131, "tags": {"amenity": "restaurant", "check_date": "2026-03-10", "name": "Eden Court", "name:mr": "\u0907\u0921\u0928 \u0915\u094b\u0930\u094d\u091f"}}, {"type": "node", "id": 2410718623, "lat": 18.5348218, "lon": 73.8381397, "tags": {"amenity": "restaurant", "check_date": "2026-03-10", "cuisine": "italian", "name": "Little Italy"}}, {"type": "node", "id": 2410718631, "lat": 18.5348843, "lon": 73.8381849, "tags": {"amenity": "restaurant", "check_date": "2026-03-10", "name": "Soul Kitch"}}, {"type": "node", "id": 2432216824, "lat": 18.5036735, "lon": 73.8215607, "tags": {"addr:city": "Pune", "addr:housename": "Kumar Karishma", "addr:housenumber": "Surver 17/2", "addr:postcode": "411029", "addr:street": "G. A. Kulkarni Road", "amenity": "restaurant", "cuisine": "regional", "name": "Four Seasons Restaurant & Bar"}}, {"type": "node", "id": 2432216825, "lat": 18.5032899, "lon": 73.8216326, "tags": {"addr:city": "Pune", "addr:housename": "Kumar Karishma", "addr:housenumber": "Survey 17/2", "addr:postcode": "411029", "addr:street": "G. A. Kulkarni Road", "amenity": "restaurant", "cuisine": "regional", "name": "Yolkshire"}}, {"type": "node", "id": 2473301733, "lat": 18.487046, "lon": 73.8128332, "tags": {"amenity": "restaurant", "cuisine": "indian", "name": "Krishna Pure Veg"}}, {"type": "node", "id": 2488142173, "lat": 18.5202983, "lon": 73.8457959, "tags": {"amenity": "restaurant", "cuisine": "indian", "name": "Shivsagar", "name:mr": "\u0936\u093f\u0935\u0938\u093e\u0917\u0930", "phone": "02025889601", "website": "https://shivsagar.com/"}}, {"type": "node", "id": 2512756388, "lat": 18.5013222, "lon": 73.8221818, "tags": {"amenity": "restaurant", "check_date": "2024-04-14", "cuisine": "indian", "name": "Chaat Cafe", "name:mr": "\u091a\u093e\u091f \u0915\u0945\u092b\u0947"}}, {"type": "node", "id": 2512756389, "lat": 18.5013733, "lon": 73.8221823, "tags": {"amenity": "restaurant", "branch": "\u0915\u0930\u094d\u0935\u0947\u0928\u0917\u0930", "check_date": "2024-04-14", "name": "Wadeshwar", "name:en": "Wadeshwar", "name:mr": "\u0935\u093e\u0921\u0947\u0936\u094d\u0935\u0930"}}, {"type": "node", "id": 2527611871, "lat": 18.4990493, "lon": 73.8193074, "tags": {"amenity": "restaurant", "cuisine": "indian", "name": "Siya", "name:mr": "\u0938\u093f\u092f\u093e", "wheelchair": "no"}}, {"type": "node", "id": 2537620596, "lat": 18.5040868, "lon": 73.8305613, "tags": {"amenity": "restaurant", "cuisine": "indian", "name": "Abhishek Non-Veg", "name:mr": "\u0905\u092d\u093f\u0937\u0947\u0915 \u0928\u0949\u0928\u0935\u094d\u0939\u0947\u091c"}}, {"type": "node", "id": 2537620599, "lat": 18.5080294, "lon": 73.8350616, "tags": {"addr:housenumber": "15-A", "addr:suburb": "Erandwane", "amenity": "restaurant", "check_date": "2023-02-13", "cuisine": "indian", "internet_access": "no", "name": "Kalinga Seafood Restaurant", "name:en": "Kalinga", "name:mr": "\u0915\u0932\u093f\u0902\u0917", "phone": "+91 86056 89990;+91 20 2544 1229", "wheelchair": "no"}}, {"type": "node", "id": 2537620601, "lat": 18.5027646, "lon": 73.8288666, "tags": {"amenity": "restaurant", "cuisine": "indian", "name": "Manali", "name:mr": "\u092e\u0928\u093e\u0932\u0940"}}, {"type": "node", "id": 2537620603, "lat": 18.5014649, "lon": 73.8268161, "tags": {"amenity": "restaurant", "cuisine": "indian", "name": "Pavitra", "name:mr": "\u092a\u0935\u093f\u0924\u094d\u0930"}}, {"type": "node", "id": 2537620605, "lat": 18.5080004, "lon": 73.8350198, "tags": {"amenity": "restaurant", "cuisine": "indian", "name": "Swami", "name:mr": "\u0938\u094d\u0935\u093e\u092e\u0940"}}, {"type": "node", "id": 2550695928, "lat": 18.5457379, "lon": 73.9058142, "tags": {"amenity": "restaurant", "check_date": "2026-03-09", "cuisine": "indian", "name": "Kalyani Veg", "name:mr": "\u0915\u0932\u094d\u092f\u093e\u0923\u0940 \u0935\u094d\u0939\u0947\u091c"}}, {"type": "node", "id": 2550695930, "lat": 18.5488016, "lon": 73.9054218, "tags": {"amenity": "restaurant", "name": "The Bounty Sizzlers", "name:mr": "\u0926 \u092c\u093e\u0909\u0902\u091f\u0940 \u0938\u093f\u091d\u0932\u0930\u094d\u0938"}}, {"type": "node", "id": 2561173086, "lat": 18.4981982, "lon": 73.8139826, "tags": {"amenity": "restaurant", "cuisine": "regional", "name": "Konkan Express", "name:mr": "\u0915\u094b\u0915\u0923 \u090f\u0915\u094d\u0938\u094d\u092a\u094d\u0930\u0947\u0938"}}, {"type": "node", "id": 2561173094, "lat": 18.5024496, "lon": 73.8161157, "tags": {"amenity": "restaurant", "cuisine": "indian", "name": "Sheetal", "name:mr": "\u0936\u0940\u0924\u0932"}}, {"type": "node", "id": 2566241271, "lat": 18.5049037, "lon": 73.8219181, "tags": {"amenity": "restaurant", "cuisine": "indian", "diet:lacto_vegetarian": "only", "name": "Kimaya", "name:mr": "\u0915\u093f\u092e\u092f\u093e"}}, {"type": "node", "id": 2566241274, "lat": 18.5054189, "lon": 73.8232962, "tags": {"amenity": "restaurant", "name": "Olivia", "name:mr": "\u0911\u0932\u093f\u0935\u094d\u0939\u093f\u092f\u093e", "smoking": "yes"}}, {"type": "node", "id": 2566241277, "lat": 18.5023108, "lon": 73.8050581, "tags": {"amenity": "restaurant", "cuisine": "indian", "name": "Rana", "name:mr": "\u0935\u0947\u0926\u093e\u0902\u0924"}}, {"type": "node", "id": 2604377957, "lat": 18.5169498, "lon": 73.8339362, "tags": {"amenity": "restaurant", "name": "Casa Lolo", "name:mr": "\u0915\u093e\u0938\u093e \u0932\u094b\u0932\u094b", "operator": "lebanese"}}, {"type": "node", "id": 2604377962, "lat": 18.5314274, "lon": 73.8293605, "tags": {"amenity": "restaurant", "cuisine": "chinese", "name": "Mainland China", "name:mr": "\u092e\u0947\u0928\u0932\u0901\u0921 \u091a\u093e\u092f\u0928\u093e"}}, {"type": "node", "id": 2618478635, "lat": 18.5020727, "lon": 73.8562922, "tags": {"amenity": "restaurant", "cuisine": "indian", "name": "Natraj", "name:mr": "\u0928\u091f\u0930\u093e\u091c"}}, {"type": "node", "id": 2645947700, "lat": 18.5243345, "lon": 73.8283847}, {"type": "node", "id": 2645947704, "lat": 18.5244829, "lon": 73.8286733}, {"type": "node", "id": 2645947706, "lat": 18.5244116, "lon": 73.8287059}, {"type": "node", "id": 2645947707, "lat": 18.5242651, "lon": 73.8284375}, {"type": "node", "id": 2645947709, "lat": 18.5243037, "lon": 73.8284294}, {"type": "node", "id": 2784700177, "lat": 18.5032321, "lon": 73.8216498, "tags": {"addr:city": "Pune", "addr:postcode": "411038", "addr:street": "G. A. Kulkarni Path", "amenity": "restaurant", "capacity": "20", "cuisine": "regional,wraps", "name": "Eatsome", "opening_hours": "Mo-Su 11:00-22:00", "smoking": "no"}}, {"type": "node", "id": 2784700384, "lat": 18.50746, "lon": 73.8083522, "tags": {"addr:city": "Pune", "addr:postcode": "411038", "addr:street": "Paud Road", "amenity": "restaurant", "capacity": "50", "cuisine": "regional", "name": "Samarath Hotel", "smoking": "no"}}, {"type": "node", "id": 2784700927, "lat": 18.5103419, "lon": 73.8164334, "tags": {"addr:city": "Pune", "addr:postcode": "411038", "addr:street": "Paud Road", "amenity": "restaurant", "capacity": "50", "cuisine": "burger", "name": "Royal Only Chicken", "smoking": "no"}}, {"type": "node", "id": 2784710434, "lat": 18.5244163, "lon": 73.8415682, "tags": {"amenity": "restaurant", "capacity": "50", "cuisine": "regional", "name": "Marrakesh"}}, {"type": "node", "id": 2787020120, "lat": 18.5169481, "lon": 73.844257, "tags": {"addr:city": "Pune", "addr:housenumber": "636", "addr:postcode": "411004", "addr:street": "Pulachi Wadi Road", "amenity": "restaurant", "capacity": "100", "check_date": "2024-04-14", "cuisine": "regional,gujarati", "name": "Sukanta", "name:en": "Sukanta", "name:mr": "\u0938\u0941\u0915\u093e\u0902\u0924\u093e", "opening_hours": "Mo-Su 11:30-15:00,19:30-22:30", "phone": "+918485847956", "smoking": "no"}}, {"type": "node", "id": 2787023153, "lat": 18.5279415, "lon": 73.84293, "tags": {"amenity": "restaurant", "cuisine": "sizzlers", "name": "Yana Sizzlers", "name:mr": "\u092f\u093e\u0928\u093e \u0938\u093f\u091d\u0932\u0930\u094d\u0938", "opening_hours": "Mo-Su 12:00-23:00", "phone": "02066013897", "website": "https://www.yanasizzlers.com/", "wheelchair": "no"}}, {"type": "node", "id": 2787974574, "lat": 18.4997954, "lon": 73.8222785, "tags": {"addr:city": "Pune", "addr:street": "G. A. Kulkarni Path", "amenity": "restaurant", "name": "Hotel Nimbalkar"}}, {"type": "node", "id": 2801569152, "lat": 18.5014463, "lon": 73.8142232, "tags": {"amenity": "restaurant", "name": "Asian Melange", "name:mr": "\u090f\u0936\u093f\u092f\u0928 \u092e\u0947\u0932\u0949\u0902\u091c"}}, {"type": "node", "id": 2827466758, "lat": 18.5096072, "lon": 73.9281761, "tags": {"amenity": "restaurant", "name": "Marrakesh"}}, {"type": "node", "id": 2827467019, "lat": 18.5093984, "lon": 73.9281865, "tags": {"amenity": "restaurant", "name": "Chennai Express"}}, {"type": "node", "id": 2836383187, "lat": 18.5524942, "lon": 73.899794, "tags": {"amenity": "restaurant", "brand": "Barbeque Nation", "brand:wikidata": "Q4859568", "check_date": "2026-03-09", "cuisine": "barbecue", "name": "Barbeque Nation", "name:mr": "\u092c\u093e\u0930\u094d\u092c\u0947\u0915\u094d\u092f\u0942 \u0928\u0947\u0936\u0928"}}, {"type": "node", "id": 2852763595, "lat": 18.5338648, "lon": 73.8997876}, {"type": "node", "id": 2852763596, "lat": 18.5338685, "lon": 73.8995561}, {"type": "node", "id": 2852763597, "lat": 18.5339279, "lon": 73.899575}, {"type": "node", "id": 2852763598, "lat": 18.5339693, "lon": 73.8996018}, {"type": "node", "id": 2852763599, "lat": 18.5339938, "lon": 73.8997946}, {"type": "node", "id": 2852763600, "lat": 18.5339967, "lon": 73.8997518}, {"type": "node", "id": 2852764201, "lat": 18.5339985, "lon": 73.8996455}, {"type": "node", "id": 2852764202, "lat": 18.5340108, "lon": 73.8997528}, {"type": "node", "id": 2852764203, "lat": 18.5340117, "lon": 73.8997051}, {"type": "node", "id": 2858176026, "lat": 18.5039234, "lon": 73.8211374, "tags": {"amenity": "restaurant", "cuisine": "indian", "diet:lacto_vegetarian": "only", "name": "Sumitra", "name:mr": "\u0938\u0941\u092e\u093f\u0924\u094d\u0930\u093e"}}, {"type": "node", "id": 2859614807, "lat": 18.5245091, "lon": 73.8388633}, {"type": "node", "id": 2859614808, "lat": 18.5242593, "lon": 73.8388128}, {"type": "node", "id": 2859614809, "lat": 18.5241364, "lon": 73.8390421}, {"type": "node", "id": 2859614810, "lat": 18.5242654, "lon": 73.8390681}, {"type": "node", "id": 2859614811, "lat": 18.5242945, "lon": 73.8389083}, {"type": "node", "id": 2859614812, "lat": 18.5244936, "lon": 73.8389485}, {"type": "node", "id": 2860338155, "lat": 18.510171, "lon": 73.8159984, "tags": {"addr:city": "Pune", "addr:postcode": "411038", "addr:street": "Opposite MSEB office, Paud Road", "amenity": "restaurant", "capacity": "25", "cuisine": "regional;arab", "name": "Zanbaqq", "opening_hours": "Mo-Su 11:30-23:00", "phone": "+918856850050", "smoking": "no"}}, {"type": "node", "id": 2868930217, "lat": 18.5157746, "lon": 73.8564341, "tags": {"amenity": "restaurant", "cuisine": "indian", "diet:lacto_vegetarian": "only", "name": "Samadhan", "name:mr": "\u0938\u092e\u093e\u0927\u093e\u0928"}}, {"type": "node", "id": 2940513803, "lat": 18.5077877, "lon": 73.8443855, "tags": {"amenity": "restaurant", "diet:lacto_vegetarian": "only", "name": "Saffron", "name:mr": "\u0938\u0945\u092b\u094d\u0930\u0928"}}, {"type": "node", "id": 2955707706, "lat": 18.5346916, "lon": 73.9120424, "tags": {"amenity": "restaurant", "check_date": "2026-03-10", "name": "Chillies"}}, {"type": "node", "id": 3129346152, "lat": 18.5122671, "lon": 73.8133078, "tags": {"addr:city": "Pune", "addr:postcode": "411038", "addr:street": "Rambaug Colony", "amenity": "restaurant", "name": "Sharao Lawns"}}, {"type": "node", "id": 3256869341, "lat": 18.484884, "lon": 73.8161061, "tags": {"amenity": "restaurant", "name": "Crunchy and Crispy"}}, {"type": "node", "id": 3309053861, "lat": 18.5081847, "lon": 73.8503517, "tags": {"amenity": "restaurant", "cuisine": "chinese", "name": "Salt and Pepper"}}, {"type": "node", "id": 3337848243, "lat": 18.5080934, "lon": 73.83466, "tags": {"amenity": "restaurant", "name": "Woodlands", "name:mr": "\u0935\u0941\u0921\u0932\u0901\u0921\u094d\u0938"}}, {"type": "node", "id": 3495323617, "lat": 18.5064157, "lon": 73.832361, "tags": {"amenity": "restaurant", "name": "Sveekar", "name:mr": "\u0938\u094d\u0935\u0940\u0915\u093e\u0930"}}, {"type": "node", "id": 3504367749, "lat": 18.4737902, "lon": 73.8221562, "tags": {"addr:city": "Pune", "addr:country": "IN", "addr:street": "Manikbaug", "amenity": "restaurant", "contact:phone": "+91 20 2435 8292;+91 20 2435 0120", "contact:website": "http://www.brahmahotels.in", "cuisine": "Multi-Cuisine", "diet:lacto_vegetarian": "yes", "diet:ovo_vegetarian": "no", "diet:vegetarian": "only", "drive_in": "no", "name": "Brahma Garden", "name:mr": "\u092c\u094d\u0930\u092e\u094d\u0939\u093e \u0917\u093e\u0930\u094d\u0921\u0928", "opening_hours": "Mo-Su 11:00-23:00", "operator": "Brahma Garden Hotels and Resorts Pvt. Ltd.", "smoking": "no", "wheelchair": "no"}}, {"type": "node", "id": 3506834646, "lat": 18.4921268, "lon": 73.8290703, "tags": {"amenity": "restaurant", "name": "Banyan Tree"}}, {"type": "node", "id": 3514620220, "lat": 18.504364, "lon": 73.9312934}, {"type": "node", "id": 3514620221, "lat": 18.5043809, "lon": 73.9311593}, {"type": "node", "id": 3514620222, "lat": 18.5044657, "lon": 73.9311593}, {"type": "node", "id": 3514620223, "lat": 18.5044657, "lon": 73.9312844}, {"type": "node", "id": 3535099237, "lat": 18.4900082, "lon": 73.8270307, "tags": {"amenity": "restaurant", "cuisine": "international", "name": "Girija Matoshree", "name:mr": "\u0917\u093f\u0930\u0940\u091c\u093e \u092e\u093e\u0924\u094b\u0936\u094d\u0930\u0940", "phone": "+919850604070", "takeaway": "yes", "website": "https://www.facebook.com/pages/Girija-Matoshri/683190031694952"}}, {"type": "node", "id": 3580660297, "lat": 18.4783382, "lon": 73.8897131}, {"type": "node", "id": 3580660298, "lat": 18.4782432, "lon": 73.8900032}, {"type": "node", "id": 3580660299, "lat": 18.4780422, "lon": 73.8899737}, {"type": "node", "id": 3580660300, "lat": 18.4779974, "lon": 73.8901962}, {"type": "node", "id": 3580660301, "lat": 18.4777322, "lon": 73.8901035}, {"type": "node", "id": 3580660302, "lat": 18.4778266, "lon": 73.8895605}, {"type": "node", "id": 3580677803, "lat": 18.4693956, "lon": 73.8892586}, {"type": "node", "id": 3580677804, "lat": 18.4693514, "lon": 73.8892572}, {"type": "node", "id": 3580677805, "lat": 18.4693431, "lon": 73.8891756}, {"type": "node", "id": 3580677806, "lat": 18.4693016, "lon": 73.889177}, {"type": "node", "id": 3580677807, "lat": 18.4693044, "lon": 73.8891041}, {"type": "node", "id": 3580677808, "lat": 18.469397, "lon": 73.8891041}, {"type": "node", "id": 3582436782, "lat": 18.4732034, "lon": 73.8895175}, {"type": "node", "id": 3582436783, "lat": 18.4731471, "lon": 73.8895168}, {"type": "node", "id": 3582436784, "lat": 18.4731458, "lon": 73.8896453}, {"type": "node", "id": 3582436785, "lat": 18.4732021, "lon": 73.889646}, {"type": "node", "id": 3637303226, "lat": 18.514425, "lon": 73.8542899, "tags": {"addr:street": "Laxmi Road", "amenity": "restaurant", "diet:vegetarian": "yes", "internet_access": "yes", "name": "Agatya", "opening_hours": "Mo-Su 08:00-23:30", "phone": "+91 20 2445 6019"}}, {"type": "node", "id": 3642844986, "lat": 18.536566, "lon": 73.8991446, "tags": {"amenity": "restaurant", "cuisine": "american;burger;chicken", "name": "Mad House Grill"}}, {"type": "node", "id": 3643823051, "lat": 18.5397963, "lon": 73.8931036}, {"type": "node", "id": 3643823054, "lat": 18.5398014, "lon": 73.8930033}, {"type": "node", "id": 3643823062, "lat": 18.5398542, "lon": 73.8931069}, {"type": "node", "id": 3643823064, "lat": 18.5398594, "lon": 73.8930066}, {"type": "node", "id": 3643845588, "lat": 18.5629371, "lon": 73.8168763}, {"type": "node", "id": 3643847507, "lat": 18.5630164, "lon": 73.8167701}, {"type": "node", "id": 3643847513, "lat": 18.5630398, "lon": 73.8169616}, {"type": "node", "id": 3643847552, "lat": 18.5631191, "lon": 73.8168554}, {"type": "node", "id": 3644360719, "lat": 18.552178, "lon": 73.8034185}, {"type": "node", "id": 3644360726, "lat": 18.5521976, "lon": 73.8032278}, {"type": "node", "id": 3644360731, "lat": 18.552262, "lon": 73.803428}, {"type": "node", "id": 3644360734, "lat": 18.5522815, "lon": 73.8032373}, {"type": "node", "id": 3644443314, "lat": 18.5661672, "lon": 73.9111728}, {"type": "node", "id": 3644443315, "lat": 18.5661694, "lon": 73.9109856}, {"type": "node", "id": 3644443337, "lat": 18.5663153, "lon": 73.9111747}, {"type": "node", "id": 3644443339, "lat": 18.5663175, "lon": 73.9109876}, {"type": "node", "id": 3644468532, "lat": 18.5508067, "lon": 73.8041076}, {"type": "node", "id": 3644468534, "lat": 18.5508905, "lon": 73.8039259}, {"type": "node", "id": 3644468536, "lat": 18.5510011, "lon": 73.8042073}, {"type": "node", "id": 3644474037, "lat": 18.5396973, "lon": 73.8939613}, {"type": "node", "id": 3644474038, "lat": 18.5397185, "lon": 73.8937356}, {"type": "node", "id": 3644474043, "lat": 18.5398157, "lon": 73.8939736}, {"type": "node", "id": 3644474045, "lat": 18.5398369, "lon": 73.893748}, {"type": "node", "id": 3645401706, "lat": 18.5392063, "lon": 73.8295264}, {"type": "node", "id": 3645401709, "lat": 18.5392359, "lon": 73.8296849}, {"type": "node", "id": 3645401712, "lat": 18.5394032, "lon": 73.8294854}, {"type": "node", "id": 3645401714, "lat": 18.5394328, "lon": 73.829644}, {"type": "node", "id": 3645445140, "lat": 18.5193123, "lon": 73.8847017}, {"type": "node", "id": 3645543149, "lat": 18.5550622, "lon": 73.8222439}, {"type": "node", "id": 3645543151, "lat": 18.5550696, "lon": 73.8221276}, {"type": "node", "id": 3645543174, "lat": 18.5552598, "lon": 73.8222578}, {"type": "node", "id": 3645543175, "lat": 18.5552672, "lon": 73.8221415}, {"type": "node", "id": 3645801187, "lat": 18.4917288, "lon": 73.8248172}, {"type": "node", "id": 3645801309, "lat": 18.4917719, "lon": 73.8246519}, {"type": "node", "id": 3645801320, "lat": 18.4917967, "lon": 73.8248369}, {"type": "node", "id": 3645801340, "lat": 18.4918399, "lon": 73.8246716}, {"type": "node", "id": 3645913012, "lat": 18.4894374, "lon": 73.8499895}, {"type": "node", "id": 3645913017, "lat": 18.4894818, "lon": 73.8499689}, {"type": "node", "id": 3645913023, "lat": 18.4895052, "lon": 73.8500248}, {"type": "node", "id": 3645913027, "lat": 18.4895297, "lon": 73.850069}, {"type": "node", "id": 3645913028, "lat": 18.4895346, "lon": 73.8500111}, {"type": "node", "id": 3645913029, "lat": 18.4895404, "lon": 73.8500946}, {"type": "node", "id": 3645913030, "lat": 18.4895541, "lon": 73.8500577}, {"type": "node", "id": 3645913032, "lat": 18.4895648, "lon": 73.8500833}, {"type": "node", "id": 3645913036, "lat": 18.4895734, "lon": 73.8503154}, {"type": "node", "id": 3645913045, "lat": 18.4896473, "lon": 73.850281}, {"type": "node", "id": 3645939461, "lat": 18.511966, "lon": 73.8145769}, {"type": "node", "id": 3645939465, "lat": 18.5120408, "lon": 73.8145479}, {"type": "node", "id": 3645939476, "lat": 18.5122414, "lon": 73.8149067}, {"type": "node", "id": 3645939479, "lat": 18.5123214, "lon": 73.8146422}, {"type": "node", "id": 3647429522, "lat": 18.5079009, "lon": 73.8315753, "tags": {"amenity": "restaurant", "contact:phone": "+91 20 2545 8504", "diet:vegetarian": "yes", "name": "Samudra", "opening_hours": "Mo-Su 07:00-00:00"}}, {"type": "node", "id": 3648273956, "lat": 18.4801075, "lon": 73.8668718}, {"type": "node", "id": 3648273957, "lat": 18.4801125, "lon": 73.8667366}, {"type": "node", "id": 3648273966, "lat": 18.480188, "lon": 73.8667526}, {"type": "node", "id": 3648273967, "lat": 18.4801885, "lon": 73.8667398}, {"type": "node", "id": 3648273974, "lat": 18.480322, "lon": 73.8667582}, {"type": "node", "id": 3648273975, "lat": 18.4803225, "lon": 73.8667453}, {"type": "node", "id": 3648273978, "lat": 18.4804329, "lon": 73.8667671}, {"type": "node", "id": 3648273979, "lat": 18.4804335, "lon": 73.8667499}, {"type": "node", "id": 3648273982, "lat": 18.4805424, "lon": 73.8667716}, {"type": "node", "id": 3648273983, "lat": 18.480543, "lon": 73.8667544}, {"type": "node", "id": 3648273986, "lat": 18.4806136, "lon": 73.8668926}, {"type": "node", "id": 3648273987, "lat": 18.4806186, "lon": 73.8667575}, {"type": "node", "id": 3648387841, "lat": 18.4499503, "lon": 73.8099952}, {"type": "node", "id": 3648387842, "lat": 18.4499594, "lon": 73.810297}, {"type": "node", "id": 3648387847, "lat": 18.4500926, "lon": 73.8099905}, {"type": "node", "id": 3648387848, "lat": 18.4501017, "lon": 73.8102922}, {"type": "node", "id": 3650198479, "lat": 18.5831209, "lon": 73.7820443}, {"type": "node", "id": 3650198492, "lat": 18.5834041, "lon": 73.7825698}, {"type": "node", "id": 3650198502, "lat": 18.583255, "lon": 73.7819737}, {"type": "node", "id": 3650198514, "lat": 18.5835275, "lon": 73.7824885}, {"type": "node", "id": 3655187262, "lat": 18.4497908, "lon": 73.8741403}, {"type": "node", "id": 3655187263, "lat": 18.4498084, "lon": 73.8742404}, {"type": "node", "id": 3655187264, "lat": 18.4498504, "lon": 73.8741323}, {"type": "node", "id": 3655187266, "lat": 18.4498639, "lon": 73.8742324}, {"type": "node", "id": 3657496166, "lat": 18.5103191, "lon": 73.8340451, "tags": {"amenity": "restaurant", "name": "Aavees", "name:mr": "\u0906\u0935\u0940\u091c"}}, {"type": "node", "id": 3657496181, "lat": 18.5148321, "lon": 73.8289305, "tags": {"amenity": "restaurant", "name": "Kobe Sizzlers", "name:mr": "\u0915\u094b\u092c\u0947", "opening_hours": "Mo-Su 11:00-23:00", "phone": "02025455002", "website": "https://kobesizzlers.in/"}}, {"type": "node", "id": 3657496187, "lat": 18.5260651, "lon": 73.8419578, "tags": {"amenity": "restaurant", "name": "Niranjan", "name:mr": "\u0928\u093f\u0930\u0902\u091c\u0928"}}, {"type": "node", "id": 3657496192, "lat": 18.5440853, "lon": 73.7898446, "tags": {"amenity": "restaurant", "name": "Saffron", "name:mr": "\u0938\u0945\u092b\u094d\u0930\u0928"}}, {"type": "node", "id": 3657496201, "lat": 18.5149005, "lon": 73.8286396, "tags": {"amenity": "restaurant", "name": "Wadeshwar", "name:mr": "\u0935\u093e\u0921\u0947\u0936\u094d\u0935\u0930"}}, {"type": "node", "id": 3691019571, "lat": 18.5401355, "lon": 73.8160192}, {"type": "node", "id": 3691019572, "lat": 18.540138, "lon": 73.8161268}, {"type": "node", "id": 3691019575, "lat": 18.5402021, "lon": 73.8160174}, {"type": "node", "id": 3691019576, "lat": 18.5402046, "lon": 73.8161251}, {"type": "node", "id": 3698221295, "lat": 18.4642879, "lon": 73.8190082, "tags": {"amenity": "restaurant", "name": "Chandani Garden Restaurant and Bar"}}, {"type": "node", "id": 3699871343, "lat": 18.5098818, "lon": 73.8340488, "tags": {"amenity": "restaurant", "name": "Aditya Pure Veg."}}, {"type": "node", "id": 3710571735, "lat": 18.5098831, "lon": 73.8340316, "tags": {"amenity": "restaurant", "name": "Aditya Pure Veg."}}, {"type": "node", "id": 3719646180, "lat": 18.4727325, "lon": 73.9020838}, {"type": "node", "id": 3719646183, "lat": 18.4727505, "lon": 73.9022513}, {"type": "node", "id": 3719646187, "lat": 18.4727848, "lon": 73.9021162}, {"type": "node", "id": 3719646190, "lat": 18.472848, "lon": 73.9021295}, {"type": "node", "id": 3719646195, "lat": 18.4728986, "lon": 73.9021238}, {"type": "node", "id": 3719646198, "lat": 18.4729365, "lon": 73.902099}, {"type": "node", "id": 3719646200, "lat": 18.4729653, "lon": 73.9020724}, {"type": "node", "id": 3719646202, "lat": 18.4729762, "lon": 73.9022342}, {"type": "node", "id": 3736424925, "lat": 18.4990512, "lon": 73.8508435, "tags": {"amenity": "restaurant", "name": "Durga Restaurant and Bar"}}, {"type": "node", "id": 3788763375, "lat": 18.549017, "lon": 73.9063415, "tags": {"amenity": "restaurant", "name": "Classic Rock Coffee Co."}}, {"type": "node", "id": 3816611692, "lat": 18.4896771, "lon": 73.832051, "tags": {"amenity": "restaurant", "name": "Sumadhu Veg Restaurant", "name:mr": "\u0938\u0941\u092e\u0927\u0942 \u0935\u094d\u0939\u0947\u091c", "opening_hours": "Mo-Su 09:00-23:00", "phone": "02024251822"}}, {"type": "node", "id": 3824604285, "lat": 18.5150062, "lon": 73.8425613, "tags": {"amenity": "restaurant", "name": "Purab"}}, {"type": "node", "id": 3837531766, "lat": 18.5163515, "lon": 73.8423676, "tags": {"amenity": "restaurant", "name": "Deccan Corner", "name:mr": "\u0921\u0947\u0915\u094d\u0915\u0928 \u0915\u0949\u0930\u094d\u0928\u0930"}}, {"type": "node", "id": 3937245716, "lat": 18.5377222, "lon": 73.8989649, "tags": {"amenity": "restaurant", "cuisine": "pizza", "name": "Mia Cuccina"}}, {"type": "node", "id": 3961482061, "lat": 18.5329864, "lon": 73.8968166, "tags": {"amenity": "restaurant", "check_date": "2026-03-10", "cuisine": "italian", "name": "Toscano Pune Koregaon Park"}}, {"type": "node", "id": 3973927417, "lat": 18.4973177, "lon": 73.8539536, "tags": {"addr:city": "Pune", "addr:country": "IN", "addr:housenumber": "454/5", "addr:postcode": "411009", "addr:street": "Mitramandal Chowk", "amenity": "restaurant", "contact:phone": "02024423809", "contact:website": "http://naivedyampune.com", "name": "Naivedyam", "opening_hours": "Mo-Su 11:00-23:30"}}, {"type": "node", "id": 3986768861, "lat": 18.5440037, "lon": 73.7820129, "tags": {"addr:city": "Pune", "addr:postcode": "411021", "addr:street": "Pashan-Sus Road", "amenity": "restaurant", "capacity": "15", "cuisine": "indian", "delivery": "yes", "level": "0", "name": "Namaskaar", "phone": "+919373825260", "takeaway": "yes"}}, {"type": "node", "id": 4194758331, "lat": 18.4804056, "lon": 73.9315331, "tags": {"amenity": "restaurant", "capacity": "24", "cuisine": "italian,_Pizza,_Pasta,_Mexican,_Lebanese", "delivery": "yes", "name": "Olivinos", "opening_hours": "12:00 - 23:00", "smoking": "outside", "takeaway": "yes"}}, {"type": "node", "id": 4235777629, "lat": 18.5618317, "lon": 73.9180056, "tags": {"amenity": "restaurant", "check_date": "2026-03-09", "name": "Rude Lounge", "website": "http://www.rudelounge.co.in"}}, {"type": "node", "id": 4287470750, "lat": 18.4627353, "lon": 73.8164543, "tags": {"addr:floor": "roof", "addr:place": "Abhiruchi Mall and Multiplex", "amenity": "restaurant", "delivery": "no", "email": "villageabhiruchi@gmail.com", "name": "Abhiruchi Terrace Restaurant", "phone": "+912024392483", "phone_1": "+912024393397"}}, {"type": "node", "id": 4328129592, "lat": 18.4759896, "lon": 73.8917034, "tags": {"amenity": "restaurant", "name": "\u0645\u0637\u0639\u0645 \u0627\u0644\u0639\u0631\u0628"}}, {"type": "node", "id": 4351483520, "lat": 18.5103602, "lon": 73.8157272, "tags": {"addr:city": "Pune", "addr:postcode": "411038", "addr:street": "Rambaug Colony Road", "amenity": "restaurant", "cuisine": "maharashtrian;konkani", "diet:non-vegetarian": "yes", "diet:vegetarian": "yes", "name": "Majghar"}}, {"type": "node", "id": 4354672915, "lat": 18.5339401, "lon": 73.8987288, "tags": {"amenity": "restaurant", "check_date": "2026-03-10", "name": "The Sassy Spoon Pune"}}, {"type": "node", "id": 4452498840, "lat": 18.5040052, "lon": 73.83098, "tags": {"amenity": "restaurant", "name": "Surya Veg/Non Veg"}}, {"type": "node", "id": 4519359991, "lat": 18.5107655, "lon": 73.8298483, "tags": {"amenity": "restaurant", "name:en": "Fish Curry and Rice"}}, {"type": "node", "id": 4559354190, "lat": 18.5471692, "lon": 73.8320871, "tags": {"amenity": "restaurant", "name": "\u0909\u092a\u0939\u093e\u0930\u0917\u0943\u0939", "name:en": "NCCS Canteen", "name:gu": "\u0a89\u0aaa\u0aac\u0abe\u0ab0\u0a97\u0ac3\u0aac"}}, {"type": "node", "id": 4583528602, "lat": 18.5370853, "lon": 73.8987605, "tags": {"amenity": "restaurant", "name": "One O Eight"}}, {"type": "node", "id": 4583821521, "lat": 18.5332739, "lon": 73.8872318, "tags": {"amenity": "restaurant", "check_date": "2026-03-09", "name": "Joy Foods"}}, {"type": "node", "id": 4616788949, "lat": 18.5142375, "lon": 73.9272909}, {"type": "node", "id": 4616788950, "lat": 18.5142045, "lon": 73.9273016}, {"type": "node", "id": 4616788951, "lat": 18.5141765, "lon": 73.9272869}, {"type": "node", "id": 4616788952, "lat": 18.5141549, "lon": 73.9273124}, {"type": "node", "id": 4616788953, "lat": 18.5141231, "lon": 73.9273217}, {"type": "node", "id": 4616788954, "lat": 18.514118, "lon": 73.927366}, {"type": "node", "id": 4616788955, "lat": 18.5140964, "lon": 73.9273968}, {"type": "node", "id": 4616788956, "lat": 18.5141116, "lon": 73.9274156}, {"type": "node", "id": 4616788957, "lat": 18.5141027, "lon": 73.9274438}, {"type": "node", "id": 4616788958, "lat": 18.5141282, "lon": 73.9274505}, {"type": "node", "id": 4616788959, "lat": 18.5141282, "lon": 73.9274854}, {"type": "node", "id": 4616788960, "lat": 18.5141562, "lon": 73.927476}, {"type": "node", "id": 4616788961, "lat": 18.514179, "lon": 73.9275189}, {"type": "node", "id": 4616788962, "lat": 18.5141994, "lon": 73.927488}, {"type": "node", "id": 4616788963, "lat": 18.5142363, "lon": 73.9275028}, {"type": "node", "id": 4616788964, "lat": 18.5142363, "lon": 73.9274626}, {"type": "node", "id": 4616788965, "lat": 18.5142693, "lon": 73.9274451}, {"type": "node", "id": 4616788966, "lat": 18.5142604, "lon": 73.927417}, {"type": "node", "id": 4616788967, "lat": 18.5142871, "lon": 73.9273821}, {"type": "node", "id": 4616788968, "lat": 18.5142617, "lon": 73.9273553}, {"type": "node", "id": 4616788969, "lat": 18.5142744, "lon": 73.9273177}, {"type": "node", "id": 4616788970, "lat": 18.5142439, "lon": 73.9273231}, {"type": "node", "id": 4616852474, "lat": 18.5387183, "lon": 73.8343717, "tags": {"addr:city": "Pune", "addr:postcode": "411007", "addr:street": "Range Hills Road", "amenity": "restaurant", "name": "NH37 DHABA"}}, {"type": "node", "id": 4631867916, "lat": 18.5031187, "lon": 73.821688, "tags": {"amenity": "restaurant", "brand": "Pizza Hut", "brand:wikidata": "Q191615", "capacity": "50", "cuisine": "pizza", "name": "Pizza Hut", "outdoor_seating": "pedestrian_zone", "smoking": "no", "takeaway": "yes"}}, {"type": "node", "id": 4631870669, "lat": 18.5035906, "lon": 73.8204939, "tags": {"amenity": "restaurant", "cuisine": "snacks", "name": "Jayesh A1 Sandwichs", "takeaway": "yes"}}, {"type": "node", "id": 4678212192, "lat": 18.5273657, "lon": 73.8731681, "tags": {"amenity": "restaurant", "name:en": "Pure Veg"}}, {"type": "node", "id": 4678263490, "lat": 18.5272704, "lon": 73.8731116, "tags": {"amenity": "restaurant", "name:en": "Laxmi vilas"}}, {"type": "node", "id": 4853188614, "lat": 18.520535, "lon": 73.8460261, "tags": {"amenity": "restaurant", "cuisine": "indian", "name": "Supreme Corner", "name:mr": "\u0938\u0941\u092a\u094d\u0930\u0940\u092e \u0915\u0949\u0930\u094d\u0928\u0930"}}, {"type": "node", "id": 4938936477, "lat": 18.5090306, "lon": 73.8490554, "tags": {"amenity": "restaurant", "name": "Satwik Thali"}}, {"type": "node", "id": 5031488748, "lat": 18.4951699, "lon": 73.812367, "tags": {"addr:city": "Pune", "addr:street": "Lane 3, Dahanukar colony", "amenity": "restaurant", "delivery": "yes", "name": "Sudit Su's Chinese Restaurant", "phone": "020 2542 1244", "takeaway": "yes"}}, {"type": "node", "id": 5057728323, "lat": 18.5602279, "lon": 73.8056378, "tags": {"addr:city": "Pune", "addr:district": "Pune", "addr:postcode": "411007", "addr:street": "Ramchandra Gayakwad Path", "air_conditioning": "yes", "alt_name": "Shivsagar;\u0936\u093f\u0935\u0938\u093e\u0917\u0930", "amenity": "restaurant", "check_date": "2026-03-10", "diet:vegetarian": "only", "internet_access": "no", "name": "Shiv Sagar", "name:en": "Shiv Sagar", "name:hi": "\u0936\u0940\u0935 \u0938\u093e\u0917\u0930", "name:mr": "\u0936\u0940\u0935 \u0938\u093e\u0917\u0930", "opening_hours": "Mo-Su 09:00-22:30", "outdoor_seating": "no", "phone": "+91 942 379 1244;+91 20 2588 7891", "toilets": "yes", "wheelchair": "no"}}, {"type": "node", "id": 5141613777, "lat": 18.5471504, "lon": 73.8897876}, {"type": "node", "id": 5141613778, "lat": 18.5472775, "lon": 73.8899566}, {"type": "node", "id": 5141613779, "lat": 18.5472915, "lon": 73.8898078}, {"type": "node", "id": 5302827822, "lat": 18.4734049, "lon": 73.8911582, "tags": {"amenity": "restaurant", "name:en": "Zam zam restaurant"}}, {"type": "node", "id": 5518826656, "lat": 18.5882951, "lon": 73.7846923, "tags": {"amenity": "restaurant", "name": "Reddy's Biryani Zone", "name:hi": "\u0930\u0947\u0921\u094d\u0921\u0940 \u092c\u093f\u0930\u092f\u093e\u0928\u0940 \u091c\u094b\u0928"}}, {"type": "node", "id": 5518831417, "lat": 18.588175, "lon": 73.7840419, "tags": {"amenity": "restaurant", "description": "A place for vegetarians", "diet:vegetarian": "only", "name": "Durga Restaurant", "name:hi": "\u0926\u0941\u0930\u094d\u0917\u093e \u0930\u0947\u0938\u094d\u0924\u0930\u093e\u0902"}}, {"type": "node", "id": 5530188322, "lat": 18.5388706, "lon": 73.8990838, "tags": {"amenity": "restaurant", "check_date": "2026-03-10", "cuisine": "indian;chinese", "name:en": "Rajput"}}, {"type": "node", "id": 5554773706, "lat": 18.5623639, "lon": 73.8296726, "tags": {"amenity": "restaurant", "cuisine": "vietnamese", "name": "Smiley House", "name:mr": "\u0938\u094d\u092e\u093e\u0908\u0932\u0940 \u0939\u093e\u0909\u0938", "smoking": "no"}}, {"type": "node", "id": 5554773712, "lat": 18.5253926, "lon": 73.8532647, "tags": {"amenity": "restaurant", "name": "Aalok", "name:mr": "\u0906\u0932\u094b\u0915"}}, {"type": "node", "id": 5587663821, "lat": 18.4596266, "lon": 73.7858652, "tags": {"addr:city": "Pune", "addr:housenumber": "Destination Centre 1", "addr:postcode": "411041", "addr:street": "Nanded City Road", "air_conditioning": "yes", "amenity": "restaurant", "bar": "yes", "cuisine": "indian;regional;chinese;chicken;ice_cream;seafood", "name": "Global Punjab", "name:en": "Global Punjab", "outdoor_seating": "yes", "phone": "02067524488"}}, {"type": "node", "id": 5589969559, "lat": 18.5882192, "lon": 73.7837338, "tags": {"addr:street": "26, Wakad Road", "amenity": "restaurant", "check_date": "2023-03-03", "name": "Akshat Hotel", "name:mr": "\u0905\u0915\u094d\u0937\u0924 \u0939\u0949\u091f\u0947\u0932"}}, {"type": "node", "id": 5609536370, "lat": 18.5884132, "lon": 73.7846268, "tags": {"amenity": "restaurant", "name": "Reddy's Biryani Zone", "name:hi": "\u0930\u0947\u0921\u0940 \u092c\u093f\u0930\u092f\u093e\u0928\u0940 \u091c\u093c\u094b\u0928"}}, {"type": "node", "id": 5695616032, "lat": 18.4588958, "lon": 73.7868026, "tags": {"amenity": "restaurant", "cuisine": "indian", "name": "Radha Krushna"}}, {"type": "node", "id": 5695620742, "lat": 18.4577197, "lon": 73.8046959, "tags": {"amenity": "restaurant", "cuisine": "indian", "name": "Green Field Garden"}}, {"type": "node", "id": 5695622054, "lat": 18.4566671, "lon": 73.8008696, "tags": {"amenity": "restaurant", "cuisine": "indian", "name": "Hotel Relax Family Garden Resto Bar"}}, {"type": "node", "id": 5771102641, "lat": 18.5476138, "lon": 73.7911434, "tags": {"amenity": "restaurant", "cuisine": "chinese", "delivery": "yes", "description": "Taste and Health Delievered", "name": "Scagegoat", "phone": "0 77 67 03 7865"}}, {"type": "node", "id": 5795521411, "lat": 18.4918078, "lon": 73.8247946}, {"type": "node", "id": 5795521412, "lat": 18.4918162, "lon": 73.8247622}, {"type": "node", "id": 5796441166, "lat": 18.4930403, "lon": 73.8257982, "tags": {"addr:postcode": "411052", "amenity": "restaurant", "cuisine": "indian", "description": "A renouned shop selling bhel and pani puri", "name": "Manisha Bhel", "takeaway": "yes"}}, {"type": "node", "id": 5803624692, "lat": 18.4921774, "lon": 73.8252641, "tags": {"addr:postcode": "411052", "amenity": "restaurant", "cuisine": "indian", "delivery": "yes", "internet_access": "no", "level": "0", "name": "Potoba", "takeaway": "yes"}}, {"type": "node", "id": 5807280625, "lat": 18.4922771, "lon": 73.8239542, "tags": {"addr:postcode": "411052", "alt_name": "My Dhaba", "amenity": "restaurant", "description": "Home-made indian food for to takeaway; Dabba Shop. You can eat-in however people rarely eat in here.Shop is located here now. To get here you will have to pass a gate (with a sign saying \"my daBBa\") and follow the footpath to the very end.", "name": "my daBBa", "note": "\"my daBBa\" is the proper capitalization; Also, My dabba commercial shop is closed, only the kitchen remains open", "opening_hours": "Mo-Su 9:00-17:00", "phone": "9822076431", "takeaway": "only"}}, {"type": "node", "id": 5810802107, "lat": 18.492924, "lon": 73.8251172, "tags": {"amenity": "restaurant", "name": "Mayur Pavbhaji", "name:mr": "\u092e\u092f\u0942\u0930 \u092a\u093e\u0935\u092d\u093e\u091c\u0940", "outdoor_seating": "yes"}}, {"type": "node", "id": 5810802108, "lat": 18.4982663, "lon": 73.8265123, "tags": {"amenity": "restaurant", "name": "Paprika", "name:mr": "\u092a\u0945\u092a\u094d\u0930\u093f\u0915\u093e"}}, {"type": "node", "id": 5815976626, "lat": 18.5019711, "lon": 73.8147421, "tags": {"amenity": "restaurant", "cuisine": "italian", "name": "La Gustosa", "name:mr": "\u0932\u093e \u0917\u0941\u0938\u094d\u0924\u094b\u0938\u093e"}}, {"type": "node", "id": 5815976636, "lat": 18.5019488, "lon": 73.8140226, "tags": {"addr:postcode": "411038", "addr:street": "Balbhim Mokate Path", "amenity": "restaurant", "diet:vegetarian": "yes", "name": "Ashirvad", "name:mr": "\u0906\u0936\u0940\u0930\u094d\u0935\u093e\u0926", "opening_hours": "Th-Tu 11:00-22:00", "phone": "020 2538 0478", "self_service": "no", "website:menu": "https://maps.app.goo.gl/8MMXky6DgGfqbPfj6?g_st=ac"}}, {"type": "node", "id": 5818757670, "lat": 18.4936388, "lon": 73.8252581, "tags": {"amenity": "restaurant", "cuisine": "indian", "level": "1;0", "name": "Samartha Pav Bhaji And Juice Cetner"}}, {"type": "node", "id": 5832220015, "lat": 18.5145117, "lon": 73.8283664, "tags": {"amenity": "restaurant", "name": "Kollage", "name:mr": "\u0915\u094b\u0932\u093e\u091c"}}, {"type": "node", "id": 5832438786, "lat": 18.5050437, "lon": 73.8320678, "tags": {"amenity": "restaurant", "diet:vegetarian": "yes", "name": "Kalinga", "name:mr": "\u0915\u0932\u093f\u0902\u0917"}}, {"type": "node", "id": 5832438806, "lat": 18.5180228, "lon": 73.8362521, "tags": {"amenity": "restaurant", "name": "Suryama"}}, {"type": "node", "id": 5832548489, "lat": 18.5083286, "lon": 73.8502975, "tags": {"amenity": "restaurant", "name": "SP's Biryani", "name:mr": "\u090f\u0938\u092a\u0940\u091c \u092c\u093f\u0930\u094d\u092f\u093e\u0923\u0940"}}, {"type": "node", "id": 5832548498, "lat": 18.509449, "lon": 73.846814, "tags": {"amenity": "restaurant", "name": "Darja Misal", "name:mr": "\u0926\u0930\u094d\u091c\u093e \u092e\u093f\u0938\u0933"}}, {"type": "node", "id": 5832579348, "lat": 18.5142459, "lon": 73.8461682, "tags": {"amenity": "restaurant", "contact:phone": "+912024453820", "delivery": "yes", "name": "New Apoorwai", "name:mr": "\u0928\u094d\u092f\u0942 \u0905\u092a\u0942\u0930\u094d\u0935\u093e\u0908", "phone": "+912024453820"}}, {"type": "node", "id": 5832579356, "lat": 18.5127211, "lon": 73.8585547, "tags": {"amenity": "restaurant", "cuisine": "indian", "name": "Shri Niyanand Bhuvan", "name:mr": "\u0936\u094d\u0930\u0940 \u0928\u093f\u0924\u094d\u092f\u093e\u0928\u0902\u0926 \u092d\u0941\u0935\u0928"}}, {"type": "node", "id": 5839779122, "lat": 18.4907367, "lon": 73.8230134, "tags": {"amenity": "restaurant", "name": "Anand Pav Bhaji"}}, {"type": "node", "id": 5839779124, "lat": 18.490578, "lon": 73.8233399, "tags": {"amenity": "restaurant", "cuisine": "indian", "name": "Sanman"}}, {"type": "node", "id": 5839779135, "lat": 18.4907109, "lon": 73.8229752, "tags": {"amenity": "restaurant", "level": "1", "name": "Aapulaki"}}, {"type": "node", "id": 5839779136, "lat": 18.4907421, "lon": 73.8229778, "tags": {"amenity": "restaurant", "description": "Fresh chilled & Frozen Food", "level": "0", "name": "Food Junction"}}, {"type": "node", "id": 5846549316, "lat": 18.5518496, "lon": 73.7932214, "tags": {"amenity": "restaurant", "name": "Tsaai Sshen Yeh", "name:mr": "\u0924\u094d\u0938\u093e\u0908 \u0936\u0947\u0928 \u092f\u0947\u0939"}}, {"type": "node", "id": 5846549318, "lat": 18.5523455, "lon": 73.7938323, "tags": {"amenity": "restaurant", "cuisine": "pizza", "name": "Greedy Man's Pizzeria", "name:mr": "\u0917\u094d\u0930\u0940\u0921\u0940 \u092e\u0945\u0928\u094d\u0938 \u092a\u093f\u091d\u094d\u091d\u0947\u0930\u093f\u092f\u093e"}}, {"type": "node", "id": 5846549319, "lat": 18.5521287, "lon": 73.7938182, "tags": {"amenity": "restaurant", "name": "Origin Bistro", "name:mr": "\u0913\u0930\u093f\u091c\u0940\u0928 \u092c\u093f\u0938\u094d\u091f\u094d\u0930\u094b", "opening_hours": "Mo-Su 09:00-22:30"}}, {"type": "node", "id": 5977703484, "lat": 18.5184212, "lon": 73.8836011}, {"type": "node", "id": 5977705285, "lat": 18.519614, "lon": 73.884269}, {"type": "node", "id": 5977705286, "lat": 18.518294, "lon": 73.88421}, {"type": "node", "id": 6015253124, "lat": 18.5085454, "lon": 73.8512373, "tags": {"addr:city": "Pune", "addr:district": "Pune", "addr:postcode": "411030", "addr:street": "Vasudev Balvant Phadke Path", "amenity": "restaurant", "cuisine": "indian;maharashtrian", "diet:vegetarian": "yes", "name": "Phadke Dining Hall", "opening_hours": "Mo-Su 09:00-21:00"}}, {"type": "node", "id": 6088121315, "lat": 18.5120388, "lon": 73.8148203}, {"type": "node", "id": 6111132430, "lat": 18.5604276, "lon": 73.809483, "tags": {"addr:city": "Pune", "addr:district": "Pune", "addr:postcode": "411007", "addr:street": "Sanghvi Kesari Road", "amenity": "restaurant", "check_date:opening_hours": "2023-02-28", "name": "Hyderabadi Spice", "name:en": "Hyderabadi Spice", "name:hi": "\u0939\u0948\u0926\u0930\u093e\u092c\u093e\u0926\u0940 \u0938\u094d\u092a\u093e\u0908\u0938", "name:mr": "\u0939\u0948\u0926\u0930\u093e\u092c\u093e\u0926\u0940 \u0938\u094d\u092a\u093e\u0908\u0938", "opening_hours": "Mo-Su 09:00-21:00"}}, {"type": "node", "id": 6111132432, "lat": 18.560421, "lon": 73.8100382, "tags": {"addr:city": "Pune", "addr:district": "Pune", "addr:postcode": "411007", "addr:street": "Sanghvi Kesari Road", "amenity": "restaurant", "check_date": "2022-12-05", "diet:vegetarian": "yes", "name": "Radhika", "name:en": "Radhika", "name:hi": "\u0930\u093e\u0927\u093f\u0915\u093e", "name:mr": "\u0930\u093e\u0927\u093f\u0915\u093e", "phone": "+91 988 144 4989"}}, {"type": "node", "id": 6111212666, "lat": 18.5655328, "lon": 73.8068155, "tags": {"addr:city": "Pune", "addr:district": "Pune", "addr:postcode": "411007", "addr:street": "Nagras Road", "air_conditioning": "yes", "amenity": "restaurant", "bar": "yes", "cuisine": "indian;seafood", "diet:non-vegetarian": "yes", "diet:vegetarian": "yes", "name": "Rahul", "name:en": "Rahul", "name:hi": "\u0930\u093e\u0939\u0941\u0932", "name:mr": "\u0930\u093e\u0939\u0941\u0932", "opening_hours": "Mo-Su 11:00-23:30", "payment:cash": "yes", "payment:credit_cards": "yes", "payment:debit_cards": "yes", "payment:google_pay": "yes", "payment:upi": "yes", "payment:upi_qr": "yes", "phone": "+91 20 4005 6932;+91 20 2588 5050", "reservation": "yes"}}, {"type": "node", "id": 6113604714, "lat": 18.569225, "lon": 73.7819041, "tags": {"amenity": "restaurant", "diet:vegetarian": "only", "name": "Akshay", "name:en": "Akshay", "name:hi": "\u0905\u0915\u094d\u0937\u092f", "name:mr": "\u0905\u0915\u094d\u0937\u092f"}}, {"type": "node", "id": 6116290216, "lat": 18.5254288, "lon": 73.8496605, "tags": {"amenity": "restaurant", "name": "Surabhi", "name:mr": "\u0938\u0941\u0930\u092d\u093f"}}, {"type": "node", "id": 6116290219, "lat": 18.5309533, "lon": 73.8756088, "tags": {"amenity": "restaurant", "name": "Kailas", "name:mr": "\u0915\u0948\u0932\u093e\u0938"}}, {"type": "node", "id": 6116290220, "lat": 18.5310569, "lon": 73.8757443, "tags": {"amenity": "restaurant", "name": "Shivprasad", "name:mr": "\u0936\u093f\u0935\u092a\u094d\u0930\u0938\u093e\u0926"}}, {"type": "node", "id": 6130922002, "lat": 18.5533359, "lon": 73.8067814, "tags": {"amenity": "restaurant", "name": "The Blue Plate", "name:mr": "\u0926 \u092c\u094d\u0932\u0942 \u092a\u094d\u0932\u0947\u091f"}}, {"type": "node", "id": 6131097700, "lat": 18.5604086, "lon": 73.8094112, "tags": {"addr:city": "Pune", "addr:district": "Pune", "addr:postcode": "411007", "addr:street": "Sanghvi Kesari Road", "amenity": "restaurant", "name": "Peshwa", "name:en": "Peshwa", "name:hi": "\u092a\u0947\u0936\u0935\u093e", "name:mr": "\u092a\u0947\u0936\u0935\u093e"}}, {"type": "node", "id": 6131097719, "lat": 18.5626701, "lon": 73.8076368, "tags": {"amenity": "restaurant", "cuisine": "fish", "name": "Saltwater", "name:mr": "\u0938\u0949\u0932\u094d\u091f\u0935\u0949\u091f\u0930"}}, {"type": "node", "id": 6135560380, "lat": 18.5531261, "lon": 73.8092758, "tags": {"amenity": "restaurant", "cuisine": "indian;chinese", "name": "Sarjaa", "name:en": "Sarjaa", "name:mr": "\u0938\u0930\u094d\u091c\u093e", "opening_hours": "Mo-Su 12:00-15:30,19:00-23:30"}}, {"type": "node", "id": 6135560586, "lat": 18.5549709, "lon": 73.8094796, "tags": {"amenity": "restaurant", "check_date": "2026-03-10", "name": "Kobe Sizzlers", "name:mr": "\u0915\u094b\u092c\u0947 \u0938\u093f\u091d\u0932\u0930\u094d\u0938"}}, {"type": "node", "id": 6135560589, "lat": 18.5560198, "lon": 73.8090143, "tags": {"amenity": "restaurant", "check_date": "2026-03-10", "name": "Taaareef", "name:mr": "\u0924\u093e\u0930\u0940\u092b"}}, {"type": "node", "id": 6135560596, "lat": 18.5599611, "lon": 73.8092825, "tags": {"amenity": "restaurant", "diet:vegetarian": "only", "name": "Mr. Veg", "name:mr": "\u092e\u093f. \u0935\u094d\u0939\u0947\u091c"}}, {"type": "node", "id": 6145441620, "lat": 18.5077353, "lon": 73.8291342, "tags": {"amenity": "restaurant", "name": "Prem Resto Bar", "name:mr": "\u092a\u094d\u0930\u0947\u092e \u0930\u0947\u0938\u094d\u091f\u094b \u092c\u093e\u0930"}}, {"type": "node", "id": 6145662564, "lat": 18.5226465, "lon": 73.8490851, "tags": {"amenity": "restaurant", "name": "Gandharva", "name:mr": "\u0917\u0902\u0927\u0930\u094d\u0935"}}, {"type": "node", "id": 6167600876, "lat": 18.5147195, "lon": 73.8154745, "tags": {"amenity": "restaurant", "cuisine": "french_fries", "name": "The J"}}, {"type": "node", "id": 6168664160, "lat": 18.5272371, "lon": 73.8639446, "tags": {"amenity": "restaurant", "name": "Caf\u00e9 Canada", "name:mr": "\u0915\u0945\u092b\u0947 \u0915\u0945\u0928\u0921\u093e"}}, {"type": "node", "id": 6183911096, "lat": 18.5027182, "lon": 73.8173606, "tags": {"amenity": "restaurant", "cuisine": "chinese", "name": "Golden Dragon", "name:mr": "\u0917\u094b\u0932\u094d\u0921\u0928 \u0921\u094d\u0930\u0945\u0917\u0928"}}, {"type": "node", "id": 6184010100, "lat": 18.539135, "lon": 73.8985947, "tags": {"amenity": "restaurant", "brand": "Pizza Hut", "brand:wikidata": "Q191615", "brand:wikipedia": "en:Pizza Hut", "check_date": "2026-03-10", "cuisine": "pizza", "name": "Pizza Hut", "name:mr": "\u092a\u093f\u091d\u094d\u091d\u093e \u0939\u091f"}}, {"type": "node", "id": 6186406666, "lat": 18.5460101, "lon": 73.9041911, "tags": {"amenity": "restaurant", "check_date": "2026-03-09", "name": "Mineority", "name:mr": "\u092e\u093e\u0908\u0928\u094b\u0930\u093f\u091f\u0940"}}, {"type": "node", "id": 6186406667, "lat": 18.5459699, "lon": 73.9064354, "tags": {"amenity": "restaurant", "check_date": "2026-03-09", "name": "Cream Craver", "name:mr": "\u0915\u094d\u0930\u0940\u092e \u0915\u094d\u0930\u0947\u0935\u094d\u0939\u0930"}}, {"type": "node", "id": 6186406680, "lat": 18.5436606, "lon": 73.9050465, "tags": {"amenity": "restaurant", "check_date": "2026-03-09", "name": "Farzi Caf\u00e9", "name:mr": "\u092b\u0930\u094d\u091c\u0940 \u0915\u0945\u092b\u0947"}}, {"type": "node", "id": 6199355632, "lat": 18.5564381, "lon": 73.8089408, "tags": {"addr:city": "Pune", "addr:postcode": "411007", "addr:street": "ITI Road", "amenity": "restaurant", "brand": "Pizza Hut", "brand:wikidata": "Q191615", "brand:wikipedia": "en:Pizza Hut", "check_date": "2026-03-10", "cuisine": "pizza", "name": "Pizza Hut", "name:mr": "\u092a\u093f\u091d\u094d\u091d\u093e \u0939\u091f"}}, {"type": "node", "id": 6201762552, "lat": 18.5239983, "lon": 73.8413832, "tags": {"amenity": "restaurant", "name": "Aakash", "name:mr": "\u0906\u0915\u093e\u0936"}}, {"type": "node", "id": 6201856567, "lat": 18.5359384, "lon": 73.875879, "tags": {"amenity": "restaurant", "name": "Nandu's Parathas", "name:mr": "\u0928\u0902\u0926\u0942\u091c \u092a\u0930\u093e\u0920\u093e\u091c"}}, {"type": "node", "id": 6201856570, "lat": 18.5358201, "lon": 73.8762411, "tags": {"amenity": "restaurant", "name": "Maratha Moglai", "name:mr": "\u092e\u0930\u093e\u0920\u093e \u092e\u094b\u0917\u0932\u093e\u0908"}}, {"type": "node", "id": 6201856578, "lat": 18.5340845, "lon": 73.8765697, "tags": {"amenity": "restaurant", "name": "Kapila", "name:mr": "\u0915\u092a\u093f\u0932\u093e"}}, {"type": "node", "id": 6226505409, "lat": 18.5488623, "lon": 73.9022208, "tags": {"addr:city": "Pune", "addr:housenumber": "Lane 13", "addr:postcode": "411014", "addr:street": "Opposite Joggers Park Entrance, Kalyani Nagar", "amenity": "restaurant", "check_date": "2026-03-10", "name": "Cafe Pondi"}}, {"type": "node", "id": 6228875585, "lat": 18.5197288, "lon": 73.862533, "tags": {"amenity": "restaurant", "name:en": "Hotel Nageshwar"}}, {"type": "node", "id": 6228888485, "lat": 18.5207018, "lon": 73.8648453, "tags": {"amenity": "restaurant", "name:en": "Lalit Mahal"}}, {"type": "node", "id": 6258873294, "lat": 18.5522414, "lon": 73.8033262, "tags": {"addr:city": "Pune", "addr:full": "Near Green Park", "addr:housenumber": "263/2/1", "addr:postcode": "411045", "addr:source": "https://www.tripadvisor.in/Restaurant_Review-g297654-d2697874-Reviews-Hotel_Bhairavee-Pune_Pune_District_Maharashtra.html", "addr:street": "Varsha Park Road", "addr:suburb": "Baner", "amenity": "restaurant", "contact:facebook": "https://www.facebook.com/bhairaveehotel", "contact:phone": "+91 20 2729 3999", "cuisine": "chinese;indian", "name": "Hotel Bhairavee", "opening_hours": "Su-Sa 12:00-23:30"}}, {"type": "node", "id": 6258995204, "lat": 18.5127078, "lon": 73.7821851, "tags": {"amenity": "restaurant", "name": "Om Sai Expresso"}}, {"type": "node", "id": 6265665728, "lat": 18.4669249, "lon": 73.8146529, "tags": {"addr:city": "WADGAON BK, PUNE", "addr:housenumber": "S NO 71/9B", "addr:postcode": "411041", "addr:street": "NEAR PRAYEJA CITY, SINHAGAD ROAD", "amenity": "restaurant", "cuisine": "regional;indian;chicken", "delivery": "yes", "diet:vegetarian": "yes", "email": "balajitreats@gmail.com", "name": "BALAJI TREATS", "opening_hours": "Mo-Su 10:00-22:00", "outdoor_seating": "yes", "phone": "+91 94230 60606", "start_date": "09/01/19", "takeaway": "yes"}}, {"type": "node", "id": 6358041302, "lat": 18.5067125, "lon": 73.8284664, "tags": {"amenity": "restaurant", "name": "Joshi Upahar Gruha", "name:mr": "\u091c\u094b\u0936\u0940 \u0909\u092a\u093e\u0939\u093e\u0930\u0917\u0943\u0939", "opening_hours": "Mo-Su 07:30-22:00"}}, {"type": "node", "id": 6358117019, "lat": 18.4992194, "lon": 73.8312585, "tags": {"amenity": "restaurant", "description": "Poli Bhaji Kendra", "name": "Pahunchar Swayampak Ghar"}}, {"type": "node", "id": 6359551343, "lat": 18.4596955, "lon": 73.8244636, "tags": {"amenity": "restaurant", "name": "Anna Vada"}}, {"type": "node", "id": 6359556679, "lat": 18.4593565, "lon": 73.8236272, "tags": {"amenity": "restaurant", "name": "Rohit Wadevale"}}, {"type": "node", "id": 6367546395, "lat": 18.4601706, "lon": 73.8258956, "tags": {"amenity": "restaurant", "name": "Shiv Shambho Vadapav and Snacks Centre", "phone": "9623254343"}}, {"type": "node", "id": 6367626860, "lat": 18.4607938, "lon": 73.8253909, "tags": {"amenity": "restaurant", "name": "Shree Hari Bhel"}}, {"type": "node", "id": 6367647453, "lat": 18.4610239, "lon": 73.8258406, "tags": {"amenity": "restaurant", "name": "Hotel Al-ZAIKA", "phone": "+9181477272"}}, {"type": "node", "id": 6372327006, "lat": 18.4614551, "lon": 73.8133512, "tags": {"amenity": "restaurant", "description": "Indian chat centre", "name": "Amrut Bhel"}}, {"type": "node", "id": 6376292789, "lat": 18.4669663, "lon": 73.8205367, "tags": {"amenity": "restaurant", "name": "Om Sai Hotel"}}, {"type": "node", "id": 6387061115, "lat": 18.4606531, "lon": 73.8238887, "tags": {"amenity": "restaurant", "name": "Shrinath Snacks and Cafe Point"}}, {"type": "node", "id": 6513402614, "lat": 18.5921016, "lon": 73.7847009, "tags": {"amenity": "restaurant", "name": "Balle Balle Punjabi"}}, {"type": "node", "id": 6513402615, "lat": 18.5920457, "lon": 73.7846808, "tags": {"amenity": "restaurant", "name": "Al Zaika"}}, {"type": "node", "id": 6513402616, "lat": 18.5919415, "lon": 73.7844945, "tags": {"amenity": "restaurant", "name": "The Breakfast Box"}}, {"type": "node", "id": 6541990365, "lat": 18.4923919, "lon": 73.8542599, "tags": {"addr:city": "Pune", "addr:housenumber": "477", "addr:postcode": "411009", "addr:street": "Shiv Darshan chowk", "air_conditioning": "yes", "amenity": "restaurant", "cuisine": "indian", "delivery": "yes", "name": "Pradnya Resturant", "opening_hours": "Mo-Su 09:00-21:00"}}, {"type": "node", "id": 7044651307, "lat": 18.4596992, "lon": 73.8011789, "tags": {"addr:city": "Pune", "addr:housenumber": "41", "addr:postcode": "412115", "addr:street": "nanded city gate", "amenity": "restaurant", "cuisine": "maharastrain", "name": "Hotel chul angan", "name:en": "HOTEL CHUL ANGAN", "opening_hours": "24/7", "phone": "8552936032"}}, {"type": "node", "id": 7112803380, "lat": 18.4564763, "lon": 73.9128604, "tags": {"amenity": "restaurant", "name": "UpSouth Undri"}}, {"type": "node", "id": 7194929645, "lat": 18.5333049, "lon": 73.88742, "tags": {"amenity": "restaurant", "check_date": "2026-03-09", "name": "Sante Spa Cuisine"}}, {"type": "node", "id": 7195544923, "lat": 18.5234091, "lon": 73.9318397, "tags": {"amenity": "restaurant", "name": "Irani Cafe"}}, {"type": "node", "id": 7196554265, "lat": 18.5200093, "lon": 73.919858, "tags": {"amenity": "restaurant", "name": "The Cult"}}, {"type": "node", "id": 7603463230, "lat": 18.5436432, "lon": 73.8990145, "tags": {"amenity": "restaurant", "check_date": "2026-03-09", "cuisine": "indian;chinese;chicken;tandoori;fish", "name": "Reddys Restaurant Kalyani Nagar", "opening_hours": "Mo-Su 12:00-22:00", "website": "https://www.reddysrestaurant.com/"}}, {"type": "node", "id": 7651452738, "lat": 18.5086804, "lon": 73.8745429}, {"type": "node", "id": 7651452739, "lat": 18.508555, "lon": 73.8744722}, {"type": "node", "id": 8012406220, "lat": 18.5248153, "lon": 73.8416321, "tags": {"amenity": "restaurant"}}, {"type": "node", "id": 8353810360, "lat": 18.4645612, "lon": 73.8792226, "tags": {"addr:street": "shivneri nagar", "amenity": "restaurant", "cuisine": "indian", "diet:vegetarian": "yes", "name": "jyoti", "opening_hours": "24/7"}}, {"type": "node", "id": 8353816034, "lat": 18.478076, "lon": 73.8899787}, {"type": "node", "id": 8441743015, "lat": 18.5284491, "lon": 73.8427597, "tags": {"amenity": "restaurant", "cuisine": "indian", "name": "Lalit Mahal", "name:mr": "\u0932\u0932\u0940\u0924 \u092e\u0939\u093e\u0932"}}, {"type": "node", "id": 8507075892, "lat": 18.4810338, "lon": 73.9024651, "tags": {"amenity": "restaurant", "cuisine": "pizza", "name": "Largo Pizza"}}, {"type": "node", "id": 8714184758, "lat": 18.5403938, "lon": 73.8303164, "tags": {"amenity": "restaurant", "name": "Tandoor Point"}}, {"type": "node", "id": 8829687877, "lat": 18.5652962, "lon": 73.9180346, "tags": {"amenity": "restaurant", "cuisine": "south_indian", "diet:vegetarian": "yes", "name": "Shree Krishna Veg Court", "name:en": "Sree Krishna Veg Court", "opening_hours": "Mo-Su 08:00-22:00"}}, {"type": "node", "id": 9174863571, "lat": 18.5049649, "lon": 73.8314747, "tags": {"addr:housenumber": "Mehendale Garage Compound, 31/1", "addr:street": "Gulawani Maharaj Road, Erandwane, Pune 411030", "amenity": "restaurant", "name": "The Verandah", "opening_hours": "Mo-Su 07:00-22:30", "phone": "096074 20066"}}, {"type": "node", "id": 9229645115, "lat": 18.504806, "lon": 73.855013, "tags": {"addr:street": "GV34+W27, Subhash Nagar, Shukrawar Peth, Pune, Maharashtra 411002", "amenity": "restaurant", "description": "North Indian Restaurant", "name": "Hotel Peacock", "opening_hours": "Mo-Su 11:00-23:30", "phone": "020 2445 6203"}}, {"type": "node", "id": 9229694180, "lat": 18.5087947, "lon": 73.8352105, "tags": {"addr:street": "Saraswat apartments, Erandwane, off, Karve Rd, near shardha centre, Pune, Maharashtra 411004", "amenity": "restaurant", "name": "Kwality Resto Bar & Restaurant", "opening_hours": "Mo-Su 11:00-00:00", "phone": "020 2543 5354", "website": "https://kwality-resto-bar-restaurant.business.site/?utm_source=gmb&utm_medium=referral"}}, {"type": "node", "id": 9229710106, "lat": 18.5060971, "lon": 73.8523384, "tags": {"addr:street": "Vijayanagar Colony, Sadashiv Peth, Pune, Maharashtra 411030", "amenity": "restaurant", "description": "Maharashtrian Restaurant", "name": "Girija Juice Bar", "opening_hours": "Mo-Su 12:00-00:00", "phone": "087969 69683"}}, {"type": "node", "id": 9229712428, "lat": 18.5092879, "lon": 73.8490814, "tags": {"amenity": "restaurant", "brand:ks": "\u0688\u0648\u0645\u06cc\u0646\u0648\u0632", "brand:pa": "\u0a21\u0a4b\u0a2e\u0a40\u0a28\u0a4b\u0a1c\u0a3c", "brand:ur": "\u0688\u0648\u0645\u06cc\u0646\u0648\u0632", "cuisine": "pizza", "name:ks": "\u0688\u0648\u0645\u06cc\u0646\u0648\u0632", "name:pa": "\u0a21\u0a4b\u0a2e\u0a40\u0a28\u0a4b\u0a1c\u0a3c", "name:ur": "\u0688\u0648\u0645\u06cc\u0646\u0648\u0632"}}, {"type": "node", "id": 9229853085, "lat": 18.4935627, "lon": 73.814064, "tags": {"addr:city": "Pune", "addr:district": "Pune", "addr:postcode": "411038", "addr:street": "Amruta Heights, near Vanadevi Mandir, Chandralok Nagari, Dahanukar Colony, Kothrud, Pune, Maharashtra 411038", "amenity": "restaurant", "diet:kosher": "yes", "diet:lactose_free": "yes", "diet:pescetarian": "yes", "diet:vegan": "yes", "diet:vegetarian": "yes", "name": "Hotel Mirch Masala", "opening_hours": "Mo-Su 11:00-15:00, 19:00-23:00"}}, {"type": "node", "id": 9230274760, "lat": 18.5091877, "lon": 73.8539352, "tags": {"addr:street": "1348, Shreemant Thorle Bajirav Peshve Rd, Natu Baag, Shukrawar Peth, Pune, Maharashtra 411002", "amenity": "restaurant", "description": "South Indian Restaurant", "name": "Ganjraj", "opening_hours": "Mo-Su 07:00-23:00"}}, {"type": "node", "id": 9232843269, "lat": 18.5189279, "lon": 73.8446593, "tags": {"addr:street": "1262/A, Prestige Chamber Jangli Maharaj Road, opp sai service petrol pump Pune Maharashtra 411004 IN, Jangali Maharaj Rd, Pune, Maharashtra", "amenity": "restaurant", "check_date": "2024-04-14", "cuisine": "Marathi", "description": "Contemporary outlet preparing Indian vegetarian dishes in a vibrant, white-walled dining room.", "diet:vegetarian": "yes", "name": "Mathura", "name:en": "Mathura", "name:mr": "\u092e\u0925\u0941\u0930\u093e", "opening_hours": "Mo-Su 11:30-23:30", "phone": "020 2553 1875", "website": "https://mathurapureveg.com/"}}, {"type": "node", "id": 9278197100, "lat": 18.4988618, "lon": 73.8192031, "tags": {"addr:housenumber": "Chintaman Pride 12/7", "addr:street": "City Pride Road, Maharashtra 411038", "amenity": "restaurant", "description": "Inventive Indian & continental fare, including breakfast in a spacious, concrete & wood setting", "name": "Barometer", "opening_hours": "Mo-Su 07:30-23:30", "phone": "091122 71000", "website": "https://barometer.in/"}}, {"type": "node", "id": 9283673911, "lat": 18.5027208, "lon": 73.8170739, "tags": {"addr:street": "11 Mayur Mayur Colony Near Karve Putala, Kothrud, Pune, Maharashtra 411038", "amenity": "restaurant", "description": "Restaurant & Bar", "name": "Bacharika Kitchen & Bar", "opening_hours": "Mo-Su 11:30-23:00", "phone": "091122 98742"}}, {"type": "node", "id": 9314473937, "lat": 18.5219443, "lon": 73.8713876}, {"type": "node", "id": 9314473938, "lat": 18.5212043, "lon": 73.8716783}, {"type": "node", "id": 9314473939, "lat": 18.5213688, "lon": 73.8720736}, {"type": "node", "id": 9314473940, "lat": 18.521879, "lon": 73.8719104}, {"type": "node", "id": 9314473941, "lat": 18.521665, "lon": 73.8717493, "tags": {"addr:city": "Pune", "addr:housenumber": "Camp", "addr:postcode": "411001", "addr:street": "Babasaheb Ambedkar Marg", "amenity": "restaurant", "cuisine": "pizza;italian", "diet:non-vegetarian": "yes", "name": "signature", "opening_hours": "Mo-Su 10:00-22:00"}}, {"type": "node", "id": 9314473943, "lat": 18.5219207, "lon": 73.8715764, "tags": {"name": "Babasaheb Ambedkar Marg"}}, {"type": "node", "id": 9314473945, "lat": 18.5212892, "lon": 73.8718823}, {"type": "node", "id": 9388135295, "lat": 18.5116828, "lon": 73.8486243, "tags": {"addr:street": "1149, Police Chowky, opposite Perugate, Perugate, Sadashiv Peth, Pune, Maharashtra 411030", "amenity": "restaurant", "description": "Classic Saatwik dishes from Pune & the surrounding region, served in a casual space.", "name": "New Poona Boarding House", "opening_hours": "Mo-Su 11:00-15:00, 19:00-22:00"}}, {"type": "node", "id": 9402107557, "lat": 18.5324919, "lon": 73.8295514, "tags": {"addr:city": "Pune", "addr:country": "IN", "addr:floor": "24", "addr:neighbourhood": "Baner", "addr:postcode": "411016", "addr:state": "Maharashtra", "air_conditioning": "yes", "amenity": "restaurant", "contact:phone": "+912066833333", "cuisine": "indian", "name": "Paasha", "opening_hours": "Sa-Th 17:30-00:30, Fr 17:30-01:30", "operator": "JW Marriott Hotels", "outdoor_seating": "yes", "reservation": "yes"}}, {"type": "node", "id": 9473449623, "lat": 18.5126197, "lon": 73.7821159, "tags": {"addr:city": "Pune", "addr:postcode": "411021", "addr:street": "Pashan-Bavdhan Road", "amenity": "restaurant", "building": "Shinde Complex", "name": "Garva Biryani"}}, {"type": "node", "id": 9497529380, "lat": 18.551299, "lon": 73.8245024}, {"type": "node", "id": 9497529381, "lat": 18.551588, "lon": 73.8247699}, {"type": "node", "id": 9497529382, "lat": 18.5513041, "lon": 73.8251173}, {"type": "node", "id": 9497529383, "lat": 18.5510151, "lon": 73.8248391}, {"type": "node", "id": 9538904657, "lat": 18.5125517, "lon": 73.7820923, "tags": {"addr:city": "Pune", "addr:postcode": "411021", "addr:street": "Pashan-Bavdhan Road", "amenity": "restaurant", "building": "Shinde complex", "cuisine": "indian;chinese;italian", "name": "Mankar dosa"}}, {"type": "node", "id": 9558387790, "lat": 18.5146914, "lon": 73.7820515, "tags": {"addr:city": "Pune", "addr:postcode": "411021", "addr:street": "Pashan-Bavdhan Road", "amenity": "restaurant", "cuisine": "indian;chinese;pasta", "name": "Aditya Pure Veg"}}, {"type": "node", "id": 9595104905, "lat": 18.5142635, "lon": 73.7822455, "tags": {"addr:city": "Pune", "addr:postcode": "411021", "addr:street": "Pashan-Bavdhan Road", "amenity": "restaurant", "name": "Barbeque misal"}}, {"type": "node", "id": 9801250537, "lat": 18.5427925, "lon": 73.7879538, "tags": {"amenity": "restaurant", "name": "Hotel Ronita Paratha"}}, {"type": "node", "id": 9847434087, "lat": 18.5471326, "lon": 73.9006668, "tags": {"addr:postcode": "411006", "addr:street": "Central Avenue", "amenity": "restaurant", "check_date": "2026-03-09", "name": "Elephant & Co."}}, {"type": "node", "id": 9866082391, "lat": 18.568648, "lon": 73.9084491, "tags": {"addr:floor": "9", "amenity": "restaurant", "check_date": "2026-03-11", "name": "The Mafia Sky Lounge", "source": "survey"}}, {"type": "node", "id": 9967125222, "lat": 18.5059152, "lon": 73.8527205, "tags": {"addr:city": "Pune", "addr:housenumber": "in front of sp clg", "addr:postcode": "411030", "addr:street": "Lokmanya Tilak Marg", "amenity": "restaurant", "branch": "original branch", "cuisine": "pizza;burger;italian;chinese", "diet:vegan": "yes", "diet:vegetarian": "yes", "fixme": "Website (https://shrimatimisalandsnaks.com) doesn't work. Is this place still working?", "name": "Shrimanti Misal and Snacks", "opening_hours": "Mo-Su 10:00-22:00", "phone": "+91 80805 60602"}}, {"type": "node", "id": 9999043390, "lat": 18.5307657, "lon": 73.9003482, "tags": {"amenity": "restaurant", "check_date": "2026-03-10", "description": "veg restaurant, no alcohol", "name": "One O Eight"}}, {"type": "node", "id": 10032910251, "lat": 18.5317721, "lon": 73.9102836, "tags": {"amenity": "restaurant", "check_date": "2026-03-10", "name": "Sorriso - Italian restaurant"}}, {"type": "node", "id": 10088327705, "lat": 18.5266135, "lon": 73.8389423, "tags": {"amenity": "restaurant", "cuisine": "mess", "name": "Mess 2"}}, {"type": "node", "id": 10091349968, "lat": 18.4523623, "lon": 73.793209}, {"type": "node", "id": 10091349969, "lat": 18.4524288, "lon": 73.7933538}, {"type": "node", "id": 10091349970, "lat": 18.4522239, "lon": 73.793467}, {"type": "node", "id": 10091349971, "lat": 18.4521552, "lon": 73.7933129}, {"type": "node", "id": 10108645131, "lat": 18.4806559, "lon": 73.8257857, "tags": {"addr:city": "Pune", "addr:postcode": "411051", "addr:street": "Sinhagad Road", "amenity": "restaurant", "cuisine": "chinese", "name": "Chop Stick pure Chinese"}}, {"type": "node", "id": 10108645134, "lat": 18.4804011, "lon": 73.8264716, "tags": {"addr:city": "Pune", "addr:postcode": "411051", "addr:street": "Sinhagad Road", "amenity": "restaurant", "cuisine": "south_indian;biryani", "name": "South Corner's SC Biryani"}}, {"type": "node", "id": 10110727631, "lat": 18.5554581, "lon": 73.797392, "tags": {"addr:city": "Pune", "addr:postcode": "411045", "addr:street": "Baner Road", "amenity": "restaurant", "name": "Talli Bar & Kitchen"}}, {"type": "node", "id": 10117678237, "lat": 18.536616, "lon": 73.8988097, "tags": {"amenity": "restaurant", "name": "Murphies"}}, {"type": "node", "id": 10164788166, "lat": 18.5555669, "lon": 73.7977958, "tags": {"addr:city": "Pune", "addr:locality": "Baner", "addr:neighbourhood": "Pallod Farms", "addr:postcode": "411045", "addr:street": "Lane 3", "amenity": "restaurant", "name": "Prachi Snacks"}}, {"type": "node", "id": 10172880979, "lat": 18.5127605, "lon": 73.8443893, "tags": {"amenity": "restaurant", "name": "Minal Khanawal"}}, {"type": "node", "id": 10172884663, "lat": 18.5108703, "lon": 73.8488493, "tags": {"amenity": "restaurant", "name": "sooth indian dosa shop"}}, {"type": "node", "id": 10172886115, "lat": 18.5106947, "lon": 73.848385, "tags": {"amenity": "restaurant", "name": "vedanti mess"}}, {"type": "node", "id": 10172893808, "lat": 18.5098934, "lon": 73.8509332, "tags": {"amenity": "restaurant", "name": "sandip poha"}}, {"type": "node", "id": 10172893809, "lat": 18.5100593, "lon": 73.8509422, "tags": {"amenity": "restaurant", "name": "kaku chi mess"}}, {"type": "node", "id": 10172920942, "lat": 18.5115436, "lon": 73.8485853, "tags": {"amenity": "restaurant", "name": "bhola tea shop"}}, {"type": "node", "id": 10172924683, "lat": 18.5093739, "lon": 73.8489161, "tags": {"amenity": "restaurant", "name": "minal veg thali"}}, {"type": "node", "id": 10172926524, "lat": 18.5108357, "lon": 73.8486976, "tags": {"amenity": "restaurant", "name": "Omkar tea shop"}}, {"type": "node", "id": 10172926525, "lat": 18.5108847, "lon": 73.8490435, "tags": {"amenity": "restaurant", "name": "Ani kay hav tea shop"}}, {"type": "node", "id": 10172926811, "lat": 18.5093912, "lon": 73.849086, "tags": {"amenity": "restaurant", "cuisine": "regional", "diet:vegetarian": "yes", "name": "nagar misal shop"}}, {"type": "node", "id": 10172927209, "lat": 18.5103753, "lon": 73.8487826, "tags": {"amenity": "restaurant", "name": "bhigavan fish dishes"}}, {"type": "node", "id": 10172927776, "lat": 18.5099293, "lon": 73.8488159, "tags": {"amenity": "restaurant", "name": "krishna veg thali"}}, {"type": "node", "id": 10172928581, "lat": 18.5101538, "lon": 73.8486642, "tags": {"amenity": "restaurant", "name": "bhosale maratha mess"}}, {"type": "node", "id": 10172930139, "lat": 18.5095811, "lon": 73.8489221, "tags": {"amenity": "restaurant", "name": "satvik veg thali"}}, {"type": "node", "id": 10172930209, "lat": 18.5128546, "lon": 73.8453131, "tags": {"amenity": "restaurant", "name": "Masaledar biryani"}}, {"type": "node", "id": 10172933066, "lat": 18.5095118, "lon": 73.8509711, "tags": {"amenity": "restaurant", "name": "raghu vadapav"}}, {"type": "node", "id": 10172934103, "lat": 18.5128395, "lon": 73.8446859, "tags": {"amenity": "restaurant", "name": "sameer pan palace"}}, {"type": "node", "id": 10172937839, "lat": 18.5127211, "lon": 73.8441781, "tags": {"amenity": "restaurant", "name": "Sainath restra"}}, {"type": "node", "id": 10172943423, "lat": 18.5098506, "lon": 73.8509891, "tags": {"amenity": "restaurant", "name": "premacha chaha"}}, {"type": "node", "id": 10172943821, "lat": 18.5097993, "lon": 73.8509837, "tags": {"amenity": "restaurant", "name": "jagadamba tea"}}, {"type": "node", "id": 10172943822, "lat": 18.5101312, "lon": 73.8515557, "tags": {"amenity": "restaurant", "name": "sudhirbhaucha katta"}}, {"type": "node", "id": 10172946996, "lat": 18.5129829, "lon": 73.8451669, "tags": {"amenity": "restaurant", "name": "patilwada"}}, {"type": "node", "id": 10172959190, "lat": 18.512976, "lon": 73.845019, "tags": {"amenity": "restaurant", "name": "raghav non veg"}}, {"type": "node", "id": 10172982156, "lat": 18.5405088, "lon": 73.8303117, "tags": {"amenity": "restaurant", "name": "TANDOOR POINT"}}, {"type": "node", "id": 10172993882, "lat": 18.5123359, "lon": 73.7820934, "tags": {"amenity": "restaurant", "cuisine": "regional", "diet:vegetarian": "yes", "name": "Vaishnavi Snacks"}}, {"type": "node", "id": 10172993883, "lat": 18.5125772, "lon": 73.7820845, "tags": {"amenity": "restaurant", "cuisine": "regional", "diet:vegetarian": "yes", "name": "Mankar Dosa"}}, {"type": "node", "id": 10172993884, "lat": 18.512664, "lon": 73.7821202, "tags": {"amenity": "restaurant", "cuisine": "regional", "diet:non-vegetarian": "yes", "name": "Garva Biryani"}}, {"type": "node", "id": 10172993885, "lat": 18.5127335, "lon": 73.7821873, "tags": {"amenity": "restaurant", "diet:non-vegetarian": "yes", "diet:vegetarian": "yes", "name": "OM Sai expresso"}}, {"type": "node", "id": 10172993887, "lat": 18.5081587, "lon": 73.7828815, "tags": {"amenity": "restaurant", "name": "CCD"}}, {"type": "node", "id": 10228082835, "lat": 18.5565944, "lon": 73.7946077, "tags": {"amenity": "restaurant", "name": "Chaat Bazar"}}, {"type": "node", "id": 10235984996, "lat": 18.5533275, "lon": 73.8070729, "tags": {"amenity": "restaurant", "check_date": "2022-12-03", "name": "Momo Panda", "name:en": "Momo Panda", "name:mr": "\u092e\u094b\u092e\u094b \u092a\u093e\u0902\u0921\u093e"}}, {"type": "node", "id": 10237441918, "lat": 18.5425519, "lon": 73.7896806, "tags": {"amenity": "restaurant", "name": "Garva Biriyani"}}, {"type": "node", "id": 10241588337, "lat": 18.5043751, "lon": 73.7890236}, {"type": "node", "id": 10246254345, "lat": 18.5251221, "lon": 73.8754537, "tags": {"addr:city": "Pune", "addr:housename": "Hotel Woodland", "addr:postcode": "411001", "addr:street": "Dr. Annie Besant Path", "amenity": "restaurant", "name": "Swaadah Veg All Day Kitchen"}}, {"type": "node", "id": 10248790567, "lat": 18.5164052, "lon": 73.7813431, "tags": {"amenity": "restaurant", "cuisine": "indian;chinese;pasta", "name": "The Bar Tales"}}, {"type": "node", "id": 10250080883, "lat": 18.553408, "lon": 73.8068332, "tags": {"amenity": "restaurant", "name": "Eggoiste"}}, {"type": "node", "id": 10250091300, "lat": 18.5532162, "lon": 73.8080686, "tags": {"amenity": "restaurant", "cuisine": "indian", "name": "Yolkshire"}}, {"type": "node", "id": 10250091305, "lat": 18.5531716, "lon": 73.8080414, "tags": {"amenity": "restaurant", "name": "Urban Bistro"}}, {"type": "node", "id": 10250091307, "lat": 18.5531946, "lon": 73.8083045, "tags": {"amenity": "restaurant", "cuisine": "pizza", "name": "#BeCrazyStayCheesy"}}, {"type": "node", "id": 10259258800, "lat": 18.5242492, "lon": 73.8388686}, {"type": "node", "id": 10259258801, "lat": 18.5241708, "lon": 73.8388527}, {"type": "node", "id": 10278237144, "lat": 18.5056597, "lon": 73.8522201, "tags": {"amenity": "restaurant", "check_date": "2022-12-21", "diet:seafood": "yes", "name": "Masemari", "name:en": "Masemari", "name:mr": "\u092e\u093e\u0938\u0947\u092e\u093e\u0930\u0940"}}, {"type": "node", "id": 10278470291, "lat": 18.551853, "lon": 73.7927181, "tags": {"addr:postcode": "411045", "air_conditioning": "yes", "amenity": "restaurant", "bar": "no", "branch": "\u092c\u093e\u0923\u0947\u0930", "brand": "Fish curry rice", "capacity": "50", "check_date": "2022-12-21", "cuisine": "seafood", "internet_access": "no", "name": "Fish curry rice", "name:en": "Fish curry rice", "name:mr": "\u092b\u093f\u0936 \u0915\u0930\u0940 \u0930\u093e\u0907\u0938", "opening_hours": "11:00-15:00,19:00-23:00", "outdoor_seating": "no", "phone": "+918446018133", "source": "survey", "wheelchair": "no"}}, {"type": "node", "id": 10301911682, "lat": 18.5699946, "lon": 73.780944, "tags": {"addr:city": "Pune", "addr:housenumber": "17/2/1, Shop 1", "addr:postcode": "411045", "addr:street": "Balewadi Rd", "amenity": "restaurant", "diet:vegetarian": "yes", "name": "Fatcook", "phone": "07276007766"}}, {"type": "node", "id": 10313160454, "lat": 18.4894343, "lon": 73.8491202, "tags": {"amenity": "restaurant", "name": "Relax", "opening_hours": "Mo-Su 11:00-23:00"}}, {"type": "node", "id": 10313195121, "lat": 18.4908306, "lon": 73.847315, "tags": {"amenity": "restaurant", "name": "Ayuhsvaa Nutriments"}}, {"type": "node", "id": 10538874678, "lat": 18.5624291, "lon": 73.8070215, "tags": {"addr:city": "Pune", "addr:housenumber": "Westend Mall", "addr:postcode": "411007", "addr:street": "Mahadji Shinde Marg", "air_conditioning": "yes", "amenity": "restaurant", "brand:wikidata": "Q4859568", "cuisine": "barbecue", "level": "4", "name": "Barbeque Nation", "name:hi": "\u092c\u093e\u0930\u094d\u092c\u0940\u0915\u094d\u092f\u0942 \u0928\u0947\u0936\u0928", "name:mr": "\u092c\u093e\u0930\u094d\u092c\u0940\u0915\u094d\u092f\u0942 \u0928\u0947\u0936\u0928", "opening_hours": "Mo-Su 12:00-04:30,18:30-23:30", "phone": "+91 80 6902 8725", "website": "https://www.barbequenation.com"}}, {"type": "node", "id": 10550777909, "lat": 18.5388575, "lon": 73.8866732, "tags": {"amenity": "restaurant", "check_date": "2026-03-09", "cuisine": "indian", "name": "Savya Rasa"}}, {"type": "node", "id": 10556239109, "lat": 18.5070106, "lon": 73.8785176, "tags": {"amenity": "restaurant", "name": "Tryluck"}}, {"type": "node", "id": 10567798636, "lat": 18.4719326, "lon": 73.8914451, "tags": {"amenity": "restaurant", "name": "Zafraan"}}, {"type": "node", "id": 10567802671, "lat": 18.4693512, "lon": 73.8901037, "tags": {"amenity": "restaurant", "name": "Gulbarga Tahari House"}}, {"type": "node", "id": 10567817818, "lat": 18.4780862, "lon": 73.8902192, "tags": {"amenity": "restaurant", "name": "Jyoti Restaurant"}}, {"type": "node", "id": 10569717933, "lat": 18.5736136, "lon": 73.8836543, "tags": {"addr:city": "Pune", "addr:postcode": "411015", "addr:street": "Vishrantwadi - Airport Road", "amenity": "restaurant", "check_date": "2026-03-11", "cuisine": "indian", "diet:vegetarian": "yes", "name": "Hotel Samruddhi"}}, {"type": "node", "id": 10576049628, "lat": 18.4693588, "lon": 73.8886782, "tags": {"amenity": "restaurant", "name": "Aarvis Annapurna"}}, {"type": "node", "id": 10596047044, "lat": 18.4683682, "lon": 73.8891485, "tags": {"amenity": "restaurant", "name": "Real Taste"}}, {"type": "node", "id": 10603267259, "lat": 18.5808747, "lon": 73.8188522, "tags": {"addr:city": "Pune", "addr:housenumber": "Khau Galli", "addr:postcode": "411061", "addr:street": "Vidya Nagar Lane 1", "amenity": "restaurant", "cuisine": "multicuisine", "name": "Gayatri Bhel"}}, {"type": "node", "id": 10671202585, "lat": 18.5751893, "lon": 73.7895989, "tags": {"amenity": "restaurant", "check_date": "2023-02-16", "name": "Shilpa", "name:en": "Shilpa", "name:mr": "\u0936\u093f\u0932\u094d\u092a\u093e"}}, {"type": "node", "id": 10702208022, "lat": 18.4866302, "lon": 73.7974083, "tags": {"amenity": "restaurant", "check_date": "2023-03-01", "name": "Khandeshi Jalgaav MH19", "name:en": "Khandeshi Jalgaav MH19", "name:mr": "\u0916\u093e\u0928\u0926\u0947\u0936\u0940 \u091c\u0933\u0917\u093e\u0935 MH19"}}, {"type": "node", "id": 10709245125, "lat": 18.4967019, "lon": 73.8591168, "tags": {"addr:city": "Pune", "addr:postcode": "411037", "addr:street": "Shankarrao Lahane Marg", "amenity": "restaurant", "cuisine": "pizza;regional;italian;burger;chinese", "diet:vegetarian": "yes", "name": "Laa Unico Restaurant"}}, {"type": "node", "id": 10709880238, "lat": 18.4884703, "lon": 73.8990349, "tags": {"addr:city": "Pune", "addr:postcode": "411040", "addr:street": "Late Vitthalrao Namdeo Shivarkar Road", "amenity": "restaurant", "cuisine": "chinese;regional", "diet:non-vegetarian": "yes", "diet:vegetarian": "yes", "name": "China Grill"}}, {"type": "node", "id": 10725603596, "lat": 18.520062, "lon": 73.8562912, "tags": {"amenity": "restaurant", "name": "Sudamache Pohe"}}, {"type": "node", "id": 10731595751, "lat": 18.4986335, "lon": 73.8333255, "tags": {"addr:housenumber": "LIGHTHOUSE BY SKYI", "addr:postcode": "411052", "addr:street": "Raja Mantri Path", "air_conditioning": "yes", "amenity": "restaurant", "capacity": "160", "check_date": "12-03-2023", "diet:vegetarian": "yes", "email": "houseofvegrestaurant@gmail.com", "name": "HOUSE OF VEG", "opening_hours": "Mo-Su 09:00-21:00", "phone": "+918698987877"}}, {"type": "node", "id": 10799628508, "lat": 18.5445637, "lon": 73.7818615, "tags": {"addr:street": "Pashan-Sus Road", "amenity": "restaurant", "name:en": "Food Container"}}, {"type": "node", "id": 10806966846, "lat": 18.5852287, "lon": 73.8224215, "tags": {"amenity": "restaurant", "cuisine": "indian", "diet:vegetarian": "yes", "name": "Ashoka Hotel"}}, {"type": "node", "id": 10807015710, "lat": 18.4508437, "lon": 73.8578188, "tags": {"amenity": "restaurant", "cuisine": "indian", "name": "Katraj Junction"}}, {"type": "node", "id": 10807197006, "lat": 18.5818717, "lon": 73.8172062}, {"type": "node", "id": 10807197007, "lat": 18.5815287, "lon": 73.8171459}, {"type": "node", "id": 10807197008, "lat": 18.5814891, "lon": 73.817313}, {"type": "node", "id": 10807197009, "lat": 18.5818541, "lon": 73.8173733}, {"type": "node", "id": 10807197456, "lat": 18.5787728, "lon": 73.8157037, "tags": {"addr:city": "Pune", "addr:postcode": "411027", "addr:street": "Pimple Gurav-Navi Sangvi Road", "amenity": "restaurant", "cuisine": "indian;chicken;chinese", "name": "Hotel Amantran", "opening_hours": "Mo-Su 11:00-23:30", "phone": "07387563131", "website": "https://hotel-amantran-veg-non-veg.business.site/?utm_source=gmb&utm_medium=referral"}}, {"type": "node", "id": 10807200490, "lat": 18.5786105, "lon": 73.8156904, "tags": {"addr:city": "Pune", "addr:postcode": "411027", "addr:street": "Pimple Gurav-Navi Sangvi Road", "amenity": "restaurant", "cuisine": "chinese", "name": "Thomson", "opening_hours": "11:30-23:30", "phone": "07887808897"}}, {"type": "node", "id": 10842029207, "lat": 18.5885876, "lon": 73.7821978}, {"type": "node", "id": 10842029209, "lat": 18.5885804, "lon": 73.7822703, "tags": {"access": "customers", "barrier": "gate"}}, {"type": "node", "id": 10842029212, "lat": 18.5892315, "lon": 73.782275}, {"type": "node", "id": 10842029213, "lat": 18.5885417, "lon": 73.782657, "tags": {"access": "private", "barrier": "gate"}}, {"type": "node", "id": 10842029217, "lat": 18.5885318, "lon": 73.7827566}, {"type": "node", "id": 10842029219, "lat": 18.589181, "lon": 73.7828277},